StopId,StopAbbr,StopName,OnStreet,AtStreet,Lon,Lat,GeoStatus,InService,Zipcodes
12132.0,1019(NE),10th Av/19th St,S 10TH AVE,W 19TH ST,-110.974632,32.211012,-214748363.0,1.0,85701
12267.0,1019(SW),10th Av/19th St,S 10TH AVE,W 19TH ST,-110.97473,32.210549,-214748363.0,1.0,85701
14876.0,1020(SE),10th Av/20th St,S 10TH AVE,W 20TH ST,-110.974576,32.209145,-214748363.0,1.0,85701
12268.0,1021(NW),10th Av/21st St,S 10TH AVE,W 21ST ST,-110.974712,32.208244,-214748363.0,1.0,85701
12130.0,1023(NE),10th Av/23rd St,S 10TH AVE,W 23RD ST,-110.974584,32.205784,-214748363.0,1.0,85713
12079.0,1023(SW),10th Av/23rd St,S 10TH AVE,W 23RD ST,-110.974721,32.205241,-214748363.0,1.0,85713
12129.0,1026(NE),10th Av/26th St,S 10TH AVE,W 26TH ST,-110.97456,32.20276,-214748363.0,1.0,85713
12270.0,1026(SW),10th Av/26th St,S 10TH AVE,W 26TH ST,-110.974734,32.202366,-214748363.0,1.0,85713
156.0,1029(NE),10th Av/29th St,S 10TH AVE,W 29TH ST,-110.974531,32.199811,-214748363.0,1.0,85713
167.0,1029(NW),10th Av/29th St,S 10TH AVE,W 29TH ST,-110.974704,32.199785,-214748363.0,1.0,85713
12271.0,1032(NW),10th Av/32nd St,S 10TH AVE,W 32ND ST,-110.974619,32.196623,-214748363.0,1.0,85713
12128.0,1032(SE),10th Av/32nd St,S 10TH AV,W 32ND ST,-110.974425,32.196346,-214748363.0,1.0,85713
14872.0,1034(SW),10th Av/34th St,S 10TH AVE,W 34TH ST,-110.974662,32.194121,-214748363.0,1.0,85713
12127.0,1036(NE),10th Av/36th St,S 10TH AVE,W 36TH ST,-110.974474,32.192803,-214748363.0,1.0,85713
14871.0,1037(SW),10th Av/37th St,S 10TH AVE,W 37TH ST,-110.974629,32.191091,-214748363.0,1.0,85713
12125.0,1041(NE),10th Av/41st St,S 10TH AV,W 41ST ST,-110.974382,32.187965,-214748363.0,1.0,85713
12274.0,1041(SW),10th Av/41st St,S 10TH AVE,W 41ST ST,-110.974655,32.187385,-214748363.0,1.0,85713
12124.0,1044(NE),10th Av/44th St,S 10TH AV,W 43RD ST,-110.975572,32.185534,-214748363.0,1.0,85713
12275.0,1044(NW),10th Av/44th St,S 10TH AVE,W 43RD ST,-110.976063,32.18551,-214748363.0,1.0,85713
12025.0,124A(NW),12th St/4th Av,E 12TH ST,S HERBERT AVE,-110.965838,32.21997,-214748363.0,1.0,85701
331.0,12AJ(NE),12th Av/Ajo,S 12TH AVE,W AJO WAY,-110.977492,32.178036,-214748363.0,1.0,85713
338.0,12AJ(SW),12th Av/Ajo,S 12TH AVE,W AJO WAY,-110.977732,32.177604,-214748363.0,1.0,85713
12107.0,12AL(NE),12th Av/C Alvord,S 12TH AVE,W C RAMONA,-110.97747,32.14529,-214748363.0,1.0,85706
14952.0,12AL(SW),12th Av/C Alvord,S 12TH AVE,W C ALVORD,-110.977781,32.144669,-214748364.0,1.0,85706
12106.0,12BI(NE),12th Av/Bilby,S 12TH AVE,W BILBY RD,-110.977425,32.141684,-214748364.0,1.0,85706
12287.0,12CA(NW),12th Av/Canada Dr,S 12TH AVE,W CANADA ST,-110.977693,32.151572,-214748363.0,1.0,85706
12109.0,12CA(SE),12th Av/Canada St,S 12TH AVE,W CANADA ST,-110.97747,32.151436,-214748363.0,1.0,85706
12278.0,12DI(NW),12th Av/District,S 12TH AVE,W DISTRICT ST,-110.977732,32.174448,-214748363.0,1.0,85714
12108.0,12DR(NE),12th Av/Drexel,S 12TH AVE,W DREXEL RD,-110.977476,32.14896,-214748363.0,1.0,85706
12288.0,12DR(SW),12th Av/Drexel,S 12TH AVE,W DREXEL RD,-110.977661,32.148412,-214748363.0,1.0,85706
12492.0,12HE(SE),12th St/Herbert,E 12TH ST,S HERBERT AVE,-110.966132,32.219857,-214748363.0,1.0,85701
11936.0,12IN(SW),12th Av/Inez,S 12TH AVE,W ACADIA DR,-110.977766,32.121379,-214748363.0,1.0,85756
12116.0,12IR(NE),12th Av/Irvington,S 12TH AVE,W IRVINGTON RD,-110.977422,32.163588,-214748363.0,1.0,85714
14862.0,12LE(NE),12th Av/Leary Dr,S 12TH AVE,W ELVIRA RD,-110.977509,32.126088,-214748363.0,1.0,85756
12046.0,12LR(NE),12th Av/Los Reales,S 12TH AVE,W LOS REALES RD,-110.977463,32.119932,-214748363.0,1.0,85756
14832.0,12MA(NE),12th Av/Marcus,S 12TH AVE,W MARCUS DR,-110.977486,32.122544,-214748363.0,1.0,85756
12050.0,12ME(NE),12th Av/Medina,S 12TH AVE,W CALLE MEDINA,-110.977628,32.130657,-214748363.0,1.0,85756
12279.0,12MI(SW),12th Av/Michigan,S 12TH AVE,W MICHIGAN ST,-110.977665,32.170084,-214748363.0,1.0,85714
12114.0,12NE(NE),12th Av/Nebraska,S 12TH AVE,W NEBRASKA ST,-110.977379,32.156516,-214748363.0,1.0,85706
12285.0,12NE(SW),12th Av/Nebraska,S 12TH AVE,W DAKOTA ST,-110.977694,32.155658,-214748363.0,1.0,85706
12117.0,12OH(SE),12th Av/Ohio,S 12TH AVE,W OHIO ST,-110.977443,32.167402,-214748363.0,1.0,85714
12280.0,12OH(SW),12th Av/Ohio,S 12TH AVE,W OHIO ST,-110.977684,32.167494,-214748363.0,1.0,85714
12281.0,12OK(NW),12th Av/Oklahoma,S 12TH AVE,W OKLAHOMA ST,-110.977684,32.165366,-214748363.0,1.0,85714
12120.0,12PA(NE),12th Av/Palmdale,S 12TH AV,W PALMDALE ST,-110.977426,32.175293,-214748363.0,1.0,85714
12118.0,12PE(NE),12th Av/Pennsylvania,S 12TH AVE,W PENNSYLVANIA DR,-110.977409,32.171686,-214748363.0,1.0,85714
14833.0,12RI(SW),12th Av/C Rita,S 12TH AVE,W DOCE PL,-110.97781,32.127751,-214748363.0,1.0,85756
12104.0,12SM(NE),12th Av/Santa Maria,S 12TH AVE,W SANTA MARIA ST,-110.977532,32.137913,-214748363.0,1.0,85706
12292.0,12SM(SW),12th Av/Santa Maria,S 12TH AVE,W SANTA MARIA ST,-110.977818,32.137359,-214748363.0,1.0,85706
12290.0,12SR(SW),12th Av/Santa Rosa,S 12TH AVE,W SANTA ROSA ST,-110.977768,32.140996,-214748364.0,1.0,85706
11935.0,12TE(SW),12th Av/Teton,S 12TH AVE,W CABOT DR,-110.977771,32.124655,-214748363.0,1.0,85756
12102.0,12VA(NE),12th Av/Valencia,S 12TH AVE,W VALENCIA RD,-110.977626,32.135126,-214748364.0,1.0,85706
155.0,12VA(SW),12th Av/Valencia,S 12TH AVE,W VALENCIA RD,-110.977924,32.132741,-214748363.0,1.0,85756
12123.0,12VE(NE),12th Av/Veterans,S 12TH AV,W VETERANS BL,-110.977439,32.181637,-214748363.0,1.0,85713
12276.0,12VE(SW),12th Av/Veterans,S 12TH AVE,W VETERANS BLVD,-110.977747,32.180918,-214748363.0,1.0,85713
12115.0,12WY(NE),12th Av/Wyoming,S 12TH AVE,W WYOMING ST,-110.977428,32.159945,-214748363.0,1.0,85706
16172.0,1ABL(SE),1st Av/Blacklidge,N 1ST AVE,E LAGUNA ST,-110.960876,32.261026,-214748363.0,1.0,85719
12914.0,1ABL(SW),1st Av/Blacklidge,N 1ST AVE,E BLACKLIDGE DR,-110.961109,32.260466,-214748363.0,1.0,85719
13087.0,1ACO(NE),1st Av/Copper,N 1ST AVE,E COPPER ST,-110.960807,32.254624,-214748363.0,1.0,85719
343.0,1AFL(NE),1st Av/Ft Lowell,N 1ST AVE,E NAVAJO RD,-110.960899,32.265489,-214748363.0,1.0,85719
333.0,1AFL(SW),1st Av/Ft Lowell,N 1ST AVE,E FORT LOWELL RD,-110.961105,32.264238,-214748363.0,1.0,85719
13088.0,1AGL(NE),1st Av/Glenn,N 1ST AVE,E GLENN ST,-110.960812,32.257899,-214748363.0,1.0,85719
12915.0,1AGL(SW),1st Av/Glenn,N 1ST AVE,E GLENN ST,-110.961064,32.257389,-214748363.0,1.0,85719
12084.0,1AGR(NE),1st Av/Grant,N 1ST AVE,E ALTURAS ST,-110.960875,32.250746,-214748363.0,1.0,85719
12098.0,1AGR(NW),1st Av/Grant,N 1ST AVE,E GRANT RD,-110.961094,32.251594,-214748363.0,1.0,85705
13091.0,1AGY(NE),1st Av/Graybill,N 1ST AVE,E GRAYBILL DR,-110.960924,32.270045,-214748363.0,1.0,85719
13090.0,1AHA(NE),1st Av/Halcyon,N 1ST AVE,E HALCYON RD,-110.960916,32.267673,-214748363.0,1.0,85719
12913.0,1AHA(SW),1st Av/Halcyon,N 1ST AVE,E HALCYON RD,-110.961148,32.266981,-214748363.0,1.0,85719
12916.0,1AJA(SW),1st Av/Jacinto,N 1ST AVE,E JACINTO ST,-110.961046,32.253732,-214748363.0,1.0,85719
13095.0,1ALI(NE),1st Av/Limberlost,N 1ST AVE,E LIMBERLOST DR,-110.960897,32.283594,-214748363.0,1.0,85719
12907.0,1ALI(NW),1st Av/Limberlost,N 1ST AVE,E LIMBERLOST DR,-110.961228,32.283295,-214748363.0,1.0,85719
15965.0,1AOR(NW),SS/1st Av/Oracle(4),N 1ST AVE,N ORACLE RD,-110.956753,32.401718,-214748364.0,1.0,85737
12895.0,1APR(SE),1st Av/Prince,N 1ST AV,E PRINCE RD,-110.960913,32.271599,-214748363.0,1.0,85719
12911.0,1APR(SW),1st Av/Prince,N 1ST AVE,E YAVAPAI RD,-110.961209,32.27146,-214748363.0,1.0,85719
16219.0,1APT(NE),1st Av/Pastime Rd,N 1ST AVE,E SMOOT DR,-110.960972,32.276229,-214748363.0,1.0,85719
12910.0,1APT(SW),1st Av/Pastime Rd,N 1ST AVE,E PASTIME RD,-110.961177,32.275315,-214748363.0,1.0,85719
12897.0,1ARO(NE),1st Av/Roger,N 1ST AVE,E CALLE ARIZONA,-110.960943,32.279647,-214748363.0,1.0,85719
12786.0,1ARO(SW),1st Av/Roger,N 1ST AVE,E ROGER RD,-110.961262,32.278806,-214748363.0,1.0,85719
12783.0,1AWE(SW),1st Av/Wetmore,N 1ST AVE,E WETMORE RD,-110.961235,32.286163,-214748363.0,1.0,85705
12912.0,1AYA(SW),1st Av/Yavapai,N 1ST AVE,E YAVAPAI RD,-110.961114,32.270074,-214748363.0,1.0,85719
13282.0,2210(SE),22nd St/10th Av,W 22ND ST,S 10TH AVE,-110.974202,32.206696,-214748363.0,1.0,85713
16161.0,223A(NW),22nd St/3rd Av,E 22ND ST,S 3RD AVE,-110.964198,32.206955,-214748363.0,1.0,85713
13285.0,224A(SE),22nd St/4th Av,E 22ND ST,S 4TH AVE,-110.964584,32.206698,-214748363.0,1.0,85713
13369.0,226A(NW),22nd St/6th Av,W 22ND ST,S 6TH AVE,-110.968775,32.20693,-214748363.0,1.0,85701
13284.0,226A(SE),22nd St/6th Av,E 22ND ST,S 6TH AVE,-110.968204,32.206745,-214748363.0,1.0,85713
13283.0,228A(SE),22nd St/8th Av,W 22ND ST,S 8TH AVE,-110.971003,32.206661,-214748363.0,1.0,85713
13347.0,22AL(NW),22nd St/Alamo,E 22ND ST,S ALAMO AVE,-110.862595,32.207081,-214748363.0,1.0,85711
13308.0,22AL(SW),22nd St/Alamo,E 22ND ST,S ALAMO AVE,-110.86265,32.206847,-214748363.0,1.0,85711
13346.0,22AM(NW),22nd St/Amherst,E 22ND ST,S AMHERST DR,-110.855121,32.206633,-214748363.0,1.0,85710
74.0,22AV(NW),22nd St/Alvernon,E 22ND ST,S ALVERNON WAY,-110.910221,32.207114,-214748363.0,1.0,85713
71.0,22AV(SE),22nd St/Alvernon,E 22ND ST,S ALVERNON WAY,-110.909141,32.20689,-214748363.0,1.0,85711
13356.0,22BE(NW),22nd St/Belvedere,E 22ND ST,S BELVEDERE AVE,-110.897391,32.207141,-214748363.0,1.0,85711
13299.0,22BE(SE),22nd St/Belvedere,E 22ND ST,S BELVEDERE AVE,-110.896318,32.206844,-214748363.0,1.0,85711
14534.0,22BR(NW),22nd St/Brown,E 22ND ST,E C MARIA,-110.795301,32.206388,-214748363.0,1.0,85710
14539.0,22BR(SE),22nd St/Brown,E 22ND ST,S BROWN AVE,-110.794792,32.206253,-214748363.0,1.0,85710
13304.0,22BV(SE),22nd St/Beverly,E 22ND ST,S BEVERLY AVE,-110.879008,32.20679,-214748363.0,1.0,85711
13344.0,22CA(NE),22nd St/Carnegie Dr,E 22ND ST,S CARNEGIE DR,-110.845267,32.20667,-214748363.0,1.0,85710
13362.0,22CC(NW),22nd St/Country Club,E 22ND ST,S COUNTRY CLUB RD,-110.927024,32.207021,-214748363.0,1.0,85713
11751.0,22CC(SE),22nd St/Country Club,22ND ST,COUNTRY CLUB,-110.92618,32.206839,-1.0,1.0,85713
13348.0,22CL(NW),22nd St/Colonia,E 22ND ST,S COLONIA AVE,-110.867512,32.207051,-214748363.0,1.0,85711
13357.0,22CO(NW),22nd St/Columbus,E 22ND ST,S BRYANT AVE,-110.901521,32.207085,-214748363.0,1.0,85711
13298.0,22CO(SE),22nd St/Columbus,E 22ND ST,S BELVEDERE AVE,-110.900564,32.206872,-214748363.0,1.0,85711
304.0,22CR(NW),22nd St/Craycroft,E 22ND ST,S BEVERLY AVE,-110.876059,32.207076,-214748363.0,1.0,85711
311.0,22CR(SE),22nd St/Craycroft,E 22ND ST,S CRAYCROFT RD,-110.874616,32.206763,-214748363.0,1.0,85711
14536.0,22CS(NW),22nd St/Cmo Seco,E 22ND ST,S CMO SECO,-110.80721,32.206513,-214748363.0,1.0,85710
14537.0,22CS(SE),22nd St/Cmo Seco,E 22ND ST,N CMO SECO,-110.806376,32.206231,-214748363.0,1.0,85710
13359.0,22DO(NW),22nd St/Dodge,E 22ND ST,S DODGE AVE,-110.913877,32.20714,-214748363.0,1.0,85716
13296.0,22DO(SE),22nd St/Dodge,E 22ND ST,S DODGE AVE,-110.913462,32.206814,-214748363.0,1.0,85713
13367.0,22EU(NW),22nd St/Euclid,E 22ND ST,EUCLID,-110.959653,32.206934,-1.0,1.0,85713
13286.0,22EU(SE),22nd St/Euclid,E 22ND ST,EUCLID,-110.959005,32.20679,-1.0,1.0,85713
13345.0,22FO(NW),22nd St/Fordham,E 22ND ST,FORDHAM,-110.850646,32.206658,-1.0,1.0,85710
16001.0,22GO(NE),22nd St/Gollob Rd,E 22ND ST,E CALLE MARIA,-110.79857,32.206398,-214748363.0,1.0,85710
14533.0,22HA(NW),22nd St/Harrison,E 22ND ST,S HARRISON RD,-110.790264,32.20647,-214748363.0,1.0,85710
15981.0,22HA(SE),22nd St/Harrison,E 22ND ST,S HARRISON RD,-110.789257,32.206159,-214748364.0,1.0,85748
15990.0,22HO(NW),22nd St/Houghton,E 22ND ST,S HOUGHTON RD,-110.773947,32.206509,-214748364.0,1.0,85748
13358.0,22IR(NW),22nd St/Irving,E 22ND ST,S IRVING AVE,-110.905476,32.207123,-214748363.0,1.0,85711
13297.0,22IR(SE),22nd St/Irving,E 22ND ST,IRVING,-110.904559,32.206862,-1.0,1.0,85711
16115.0,22KI(NW),22nd St/Kino Pkwy,E 22ND ST,S KINO PW,-110.950721,32.207041,-214748363.0,1.0,85713
11868.0,22KO(NW),22nd St/Kolb,E 22ND ST,KOLB,-110.841678,32.20664,-1.0,1.0,85710
12338.0,22KO(SE),22nd St/Kolb,E 22ND ST,S KOLB RD,-110.840409,32.2063,-214748363.0,1.0,85710
16003.0,22LA(NW),22nd St/Lakeshore Ln,N SUN TRAN BLVD,E TANGELO DR,-110.922804,32.207217,-214748363.0,1.0,85716
12337.0,22LE(SW),22nd St/Lehigh Dr,E 22ND ST,LEHIGH DR,-110.844806,32.20637,-1.0,1.0,85710
13335.0,22LU(NW),22nd St/Lusk,E 22ND ST,S SARNOFF DR,-110.811538,32.206514,-214748363.0,1.0,85710
13319.0,22LU(SW),22nd St/Lusk,E 22ND ST,LUSK,-110.811506,32.206277,-1.0,1.0,85710
13352.0,22MA(NW),22nd St/Magnolia,E 22ND ST,S MAGNOLIA AVE,-110.881415,32.207059,-214748363.0,1.0,85711
13370.0,22ME(NW),22nd St/Meyer Av,E 22ND ST,MEYER AV,-110.972695,32.206859,-1.0,1.0,85701
13354.0,22MV(NW),22nd St/Mountain View,E 22ND ST,S MOUNTAIN VIEW AVE,-110.890093,32.207089,-214748363.0,1.0,85711
13301.0,22MV(SE),22nd St/Mountain View,E 22ND ST,S MOUNTAIN VIEW,-110.888311,32.206795,-1.0,1.0,85711
14538.0,22OP(SE),22nd St/Oak Park,E 22ND ST,S GOLLOB RD,-110.799361,32.206244,-214748363.0,1.0,85710
13338.0,22PA(NW),22nd St/Pantano Rd,E 22ND ST,S PANTANO RD,-110.828408,32.20662,-214748363.0,1.0,85710
12340.0,22PA(SE),22nd St/Pantano Rd,E 22ND ST,PANTANO RD,-110.82619,32.206324,-1.0,1.0,85710
10923.0,22PK(NW),22nd St/Park,E 22ND ST,S PARK AVE,-110.956865,32.206981,-214748363.0,1.0,85713
10864.0,22PK(SE),22nd St/Park,E 22ND ST,S PARK AVE,-110.955605,32.206806,-214748363.0,1.0,85713
13309.0,22PO(SE),22nd St/Av Polar,E 22ND ST,S AMHERST DR,-110.85453,32.206384,-214748363.0,1.0,85710
11866.0,22PP(NW),22nd St/Pantano Pkwy,E 22ND ST,S PANTANO RD,-110.824181,32.206548,-214748363.0,1.0,85710
13316.0,22PP(SE),22nd St/Pantano Pkwy,E 22ND ST,PANTANO PKWY,-110.822994,32.206317,-1.0,1.0,85710
11867.0,22PR(NW),22nd St/Prudence,E 22ND ST,S PRUDENCE RD,-110.833241,32.206628,-214748363.0,1.0,85710
12339.0,22PR(SE),22nd St/Prudence,E 22ND ST,S PRUDENCE RD,-110.832418,32.206385,-214748364.0,1.0,85710
11754.0,22PV(SW),22nd St/Palo Verde,E 22ND ST,S PALO VERDE AVE,-110.917808,32.206884,-214748363.0,1.0,85713
16004.0,22RA(NW),22nd St/Randolph Way,N SUN TRAN BLVD,E TANGELO DR,-110.91849,32.207168,-214748363.0,1.0,85716
11752.0,22RA(SE),22nd St/Randolph Pkwy,E 22ND ST,S JONES BLVD,-110.922012,32.206852,-214748363.0,1.0,85713
13302.0,22RO(SE),22nd St/Rosemont,S 22ND ST,ROSEMONT,-110.883267,32.206773,-1.0,1.0,85711
13307.0,22SA(SW),22nd St/Sahuara Av,E 22ND ST,S SAHUARA AVE,-110.866758,32.206812,-214748363.0,1.0,85711
12366.0,22SF(NW),22nd St/Sarnoff,E 22ND ST,S SARNOFF DR,-110.815664,32.206504,-214748363.0,1.0,85710
12341.0,22SF(SE),22nd St/Sarnoff,E 22ND ST,S SARNOFF DR,-110.814958,32.206313,-214748363.0,1.0,85710
13310.0,22SI(SE),22nd St/Av Sirio,E 22ND ST,S AVE SIRIO,-110.850139,32.206375,-214748363.0,1.0,85710
10922.0,22SR(NW),22nd St/Santa Rita,E 22ND ST,S SANTA RITA AVE,-110.953355,32.206973,-214748363.0,1.0,85713
13337.0,22SV(NE),22nd St/Sherwood Village Dr,E 22ND ST,S SHERWOOD VILLAGE DR,-110.817934,32.206514,-214748363.0,1.0,85710
13317.0,22SV(SE),22nd St/Sherwood Village Dr,E 22ND ST,S SHERWOOD VILLAGE DR,-110.819631,32.206294,-214748363.0,1.0,85710
13355.0,22SW(NW),22nd St/Swan,E 22ND ST,S SWAN RD,-110.892801,32.207056,-214748363.0,1.0,85711
13300.0,22SW(SE),22nd St/Swan,E 22ND ST,S SWAN RD,-110.892014,32.206826,-214748363.0,1.0,85711
13313.0,22TQ(SE),22nd St/Turquoise,E 22ND ST,S TURQUOISE VISTA,-110.83624,32.206338,-214748363.0,1.0,85710
13341.0,22TQ*NW*,22nd St/Turquoise,E 22ND ST,S TURQUOISE VISTA,-110.837175,32.206633,-214748363.0,1.0,85710
13363.0,22TR(NW),22nd St/Treat,E 22ND ST,S TREAT AVE,-110.93131,32.206962,-214748363.0,1.0,85713
13291.0,22TR(SE),22nd St/Treat,E 22ND ST,S TREAT AVE,-110.929924,32.206785,-214748363.0,1.0,85713
13364.0,22TU(NW),22nd St/Tucson,E 22ND ST,S TUCSON BL,-110.935357,32.206996,-214748363.0,1.0,85713
11932.0,22TU(SE),22nd St/Tucson,E 22ND ST,S TUCSON BLVD,-110.934777,32.206762,-214748363.0,1.0,85713
13349.0,22VB(NE),22nd St/Van Buren,E 22ND ST,S VAN BUREN AVE,-110.870264,32.207086,-214748363.0,1.0,85711
13306.0,22VB(SE),22nd St/Van Buren,E 22ND ST,S VAN BUREN AVE,-110.870543,32.206805,-214748363.0,1.0,85711
70.0,22WI(NW),22nd St/Wilmot,E 22ND ST,S WILMOT RD,-110.858354,32.206884,-214748363.0,1.0,85711
75.0,22WI(SE),22nd St/Wilmot,E 22ND ST,S WILMOT RD,-110.857583,32.20658,-214748363.0,1.0,85711
16091.0,2821(SW),SS/Indian Rt 28/Indian Rt 21,W INDIAN ROUTE 28,INDIAN ROUTE 21,-112.312566,32.034796,-214748363.0,1.0,85634
12016.0,2910(SE),29th St/10th Av,W 29TH ST,S 10TH AVE,-110.97428,32.199485,-214748363.0,1.0,85713
12015.0,2911(SW),29th St/11th Av,W 29TH ST,S 11TH AVE,-110.976556,32.199427,-214748363.0,1.0,85713
12501.0,2911*NW*,29th St/11th Av,W 29TH ST,S 11TH AVE,-110.976332,32.199615,-214748363.0,1.0,85713
11761.0,2948(EB),29th St/4880 E 29th St,29TH ST, ,-110.888431,32.199622,-1.0,1.0,85711
11826.0,2949(WB),29th St/4929 E 29th St,29ST ST, ,-110.887758,32.199834,-1.0,1.0,85711
198.0,296A(NW),29th St/6th Av,W 29TH ST,S 6TH AVE,-110.968866,32.19958,-214748363.0,1.0,85713
197.0,296A(SE),29th St/6th Av,E 29TH ST,S 6TH AVE,-110.968255,32.199513,-214748363.0,1.0,85713
12500.0,299A(NW),29th St/9th Av,W 29TH ST,S 9TH AVE,-110.973311,32.199566,-214748363.0,1.0,85713
11821.0,29AL(NW),29th St/Alamo,E 29TH ST,S SONOITA AVE,-110.862211,32.199785,-214748363.0,1.0,85711
11824.0,29BE(NW),29th St/Beverly,E 29TH ST,S BEVERLY AVE,-110.879745,32.199788,-214748363.0,1.0,85711
12778.0,29BE(SE),29th St/Beverly,E 29TH ST,S BEVERLY AVE,-110.878606,32.199542,-214748363.0,1.0,85711
11828.0,29BL(NW),29th St/Belvedere(NW),E 29TH ST,S BELVEDERE AVE,-110.896205,32.199887,-214748363.0,1.0,85711
11758.0,29BL*SW*,29th St/Belvedere(SW),E 29TH ST,S BELVEDERE,-110.897122,32.199677,-214748363.0,1.0,85711
11829.0,29CO(NE),29th St/Columbus,E 29TH ST,S COLUMBUS BLVD,-110.900562,32.199898,-214748363.0,1.0,85711
16119.0,29CO(SE),29th St/Columbus,E 29TH ST,S COLUMBUS BLVD,-110.900234,32.199691,-214748363.0,1.0,85711
14344.0,29CR(NW),29th St/Craycroft,E 29TH ST,S CRAYCROFT RD,-110.876009,32.199765,-214748363.0,1.0,85711
12779.0,29CR(SE),29th St/Craycroft,E 29TH ST,S CRAYCROFT RD,-110.874629,32.199589,-214748363.0,1.0,85711
11763.0,29FA(SE),29th St/Farwell,E 29TH ST,S FARWELL AV,-110.880662,32.199584,-214748363.0,1.0,85711
140.0,29IR(NW),29th St/Irving,E 29TH ST,S IRVING AVE,-110.905492,32.199915,-214748363.0,1.0,85711
135.0,29IR(SE),29th St/Irving,E 29TH ST,S IRVING AVE,-110.90461,32.199691,-214748363.0,1.0,85711
11825.0,29RO(NW),29th St/Rosemont,E 29TH ST,S ROSEMONT AVE,-110.884232,32.199804,-214748363.0,1.0,85711
11762.0,29RO(SE),29th St/Rosemont,E 29TH ST,S ROSEMONT AVE,-110.882881,32.199551,-214748363.0,1.0,85711
11822.0,29SA(NE),29th St/Sahuara,E 29TH ST,S SAHUARA AVE,-110.866028,32.199732,-214748363.0,1.0,85711
11766.0,29SA(SW),29th St/Sahuara,E 29TH ST,S SAHUARA AVE,-110.866826,32.199599,-214748363.0,1.0,85711
11827.0,29SW(NW),29th St/Swan,E 29TH ST,S SWAN RD,-110.893124,32.199871,-214748363.0,1.0,85711
11760.0,29SW(SE),29th St/Swan,E 29TH ST,S SWAN RD,-110.891316,32.199637,-214748363.0,1.0,85711
11823.0,29VB(NW),29th St/Van Buren,E 29TH ST,S VAN BUREN AVE,-110.871366,32.199723,-214748363.0,1.0,85711
11765.0,29VB(SE),29th St/Van Buren,E 29TH ST,S SAHUARA AVE,-110.870653,32.199673,-214748363.0,1.0,85711
11759.0,29VE(SE),29th St/Venice,E 29TH ST,S SWAN RD,-110.894351,32.199638,-214748363.0,1.0,85711
11820.0,29WI(NW),29th St/Wilmot,E 29TH ST,S WILMOT RD,-110.858682,32.199785,-214748363.0,1.0,85711
11767.0,29ZU(SE),29th St/Zuni,E 29TH ST,S ZUNI AVE,-110.861397,32.19963,-214748363.0,1.0,85711
16097.0,2A5S(SE),SS/2nd Av/5th St,N 2ND AVE,W WELCOME ST,-112.872267,32.382727,-214748363.0,1.0,85321
15151.0,2SCH(CR),SL/2nd St/Cherry Av,E 2ND ST,N WARREN AVE,-110.947324,32.233813,-214748363.0,1.0,85719
16186.0,2SHI(CR),SL/2nd St/Highland Av,E 2ND ST,N MOUNTAIN AVE,-110.951195,32.233792,-214748363.0,1.0,85719
16101.0,2SOL(CR),SL/2nd St/Olive Rd,E 2ND ST,N PARK AVE,-110.955589,32.233783,-214748363.0,1.0,85721
11246.0,32CH(NW),32nd St/Chrysler,E 32ND ST,S DODGE BLVD,-110.914192,32.199391,-214748363.0,1.0,85713
14727.0,32DO(SE),32nd St/Dodge,E 32ND ST,S DODGE BLVD,-110.91334,32.199253,-214748363.0,1.0,85713
14739.0,32WI(NW),32nd St/Winstel,E 32ND ST,S WINSTEL AV,-110.910854,32.199413,-214748363.0,1.0,85713
14740.0,32WI(SE),32nd St/Winstel,E 32ND ST,S WINSTEL AVE,-110.910273,32.199286,-214748363.0,1.0,85713
14053.0,36CA(NW),36th St/Campbell(NW),E 36TH ST,S CAMPBELL AVE,-110.944255,32.192512,-214748364.0,1.0,85713
10912.0,36CA(SE),36th St/Campbell(SE),E 36TH ST,S CAMPBELL AVE,-110.942919,32.192319,-214748364.0,1.0,85713
12002.0,36EH(NE),36th St/Enchanted Hills,W 36TH ST,S ENCHANTED HILLS DR,-111.007117,32.192379,-214748363.0,1.0,85713
12515.0,36EH(SE),36th St/Enchanted Hills,W 36TH ST,W DOMINY RD,-111.007112,32.192225,-214748363.0,1.0,85713
16340.0,36FO(NW),36th St/Forgeus Av,E 36TH ST,S FORGEUS SV,-110.933258,32.192548,-214748364.0,1.0,85713
16341.0,36FO(SE),36th St/Forgeus Av,E 36TH ST,S FORGEUS AV,-110.932238,32.192361,-214748364.0,1.0,85713
14956.0,36KI(NW),36th St/Kino Pw, ,E COCONINO VISTA,-110.948958,32.192499,-214748364.0,1.0,85713
10875.0,36KR(NW),36th St/Kramer,E 36TH ST,S KRAMER AVE,-110.941977,32.19252,-214748363.0,1.0,85713
16045.0,36LC(NE),36th St/La Cholla,W 36TH ST,S LA CHOLLA BLVD,-111.011072,32.192386,-214748363.0,1.0,85713
12514.0,36LC(SE),36th St/La Cholla,W 36TH ST,S LA CHOLLA BLVD,-111.011297,32.192209,-214748363.0,1.0,85713
12001.0,36LE(NW),36th St/Lands End,W 36TH ST,S LANDS END RD,-111.003834,32.192376,-214748363.0,1.0,85713
12516.0,36LE(SW),36th St/Lands End,W 36TH ST,S LANDS END RD,-111.004213,32.19222,-214748363.0,1.0,85713
12000.0,36MI(NW),36th St/Mission,W 36TH ST,S MISSION RD,-110.999847,32.192368,-214748363.0,1.0,85713
12517.0,36MI(SW),36th St/Mission,W 36TH ST,S MISSION RD,-110.999927,32.192205,-214748363.0,1.0,85713
14369.0,36PL(NE),36th St/Plumer,E 36TH ST,S PLUMER AV,-110.938558,32.192478,-214748363.0,1.0,85713
15943.0,36PL(SW),36th St/Plumer,E 36TH ST,S PLUMER AVE,-110.939488,32.192348,-214748363.0,1.0,85713
16339.0,36PV(NW),36th St/Pinal Vista,E 36TH ST,E PINAL VISTA,-110.929045,32.191128,-214748364.0,1.0,85713
16342.0,36PV(SW),36th St/Pinal Vista,E 36TH ST,E PINAL VISTA,-110.929076,32.19097,-214748364.0,1.0,85713
14490.0,3A29(NW),3rd Av/29th St,S 3RD AVE,E 29TH ST,-110.963872,32.199779,-214748363.0,1.0,85713
12493.0,4A13(SW),4th Av/13th St,S 4TH AVE,E 13TH ST,-110.965629,32.218299,-214748363.0,1.0,85701
12024.0,4A15(NE),4th Av/15th St,S 4TH AVE,E 15TH ST,-110.965424,32.216578,-214748363.0,1.0,85701
12494.0,4A15(NW),4th Av/15th St,S 4TH AVE,E 15TH ST,-110.965615,32.21617,-214748363.0,1.0,85701
12023.0,4A17(NE),4th Av/17th St,S 4TH AVE,E 17TH ST,-110.965405,32.213795,-214748363.0,1.0,85701
12495.0,4A17(SW),4th Av/17th St,S 4TH AVE,E 17TH ST,-110.965586,32.21282,-214748363.0,1.0,85701
12022.0,4A20(NE),4th Av/20th St,S 4TH AVE,E 20TH ST,-110.965365,32.209728,-214748363.0,1.0,85701
13069.0,4A20(NW),4th Av/20th St,S 4TH AVE,E 20TH ST,-110.965559,32.209548,-214748363.0,1.0,85701
12021.0,4A22(NE),4th Av/22nd St,S 4TH AVE,E 22ND ST,-110.965335,32.207278,-214748363.0,1.0,85713
16351.0,4A23(SW),4th Av/23rd St, , ,-110.965527,32.205583,-214748364.0,1.0,85713
14951.0,4A25(SW),4th Av/25th St,S 4TH AVE,E 25TH ST,-110.965522,32.203406,-214748363.0,1.0,85713
12019.0,4A26(NE),4th Av/26th St,S 4TH AVE,E 26TH ST,-110.965326,32.20337,-214748363.0,1.0,85713
12499.0,4A27(SW),4th Av/27th St,S 4TH AVE,E 27TH ST,-110.965494,32.201186,-214748363.0,1.0,85713
12018.0,4A28(SE),4th Av/28th St,S 4TH AV,E 28TH ST,-110.965372,32.200256,-214748363.0,1.0,85713
16183.0,4A4S(CR),SL/4th Av/4th St,N 4TH AVE,E 5TH ST,-110.965608,32.229712,-214748363.0,1.0,85705
16182.0,4A6S(CR),SL/4th Av/6th St,N 4TH AVE,E 6TH ST,-110.965579,32.226715,-214748363.0,1.0,85705
16181.0,4A9S(CR),SL/4th Av/9th St,N 4TH AVE,E 8TH ST,-110.965556,32.224077,-214748363.0,1.0,85705
13832.0,5SAR(NW),5th St/Arcadia,E 5TH ST,N ARCADIA AVE,-110.888821,32.228979,-214748363.0,1.0,85711
13715.0,5SAR(SW),5th St/Arcadia,E 5TH ST,N ARCADIA AVE,-110.888891,32.228749,-214748363.0,1.0,85711
23.0,5SAV(NW),5th St/Alvernon,E 5TH ST,N ALVERNON WAY,-110.91003,32.228973,-214748363.0,1.0,85711
30.0,5SAV(SE),5th St/Alvernon,E 5TH ST,N ALVERNON WAY,-110.909321,32.228805,-214748363.0,1.0,85711
13830.0,5SBE(NW),5th St/Beverly,E 5TH ST,N BEVERLY AVE,-110.880057,32.229016,-214748363.0,1.0,85711
13858.0,5SBE(SW),5th St/Beverly,E 5TH ST,N CLOVERLAND AVE,-110.879842,32.228868,-214748363.0,1.0,85711
13834.0,5SBL(NW),5th St/Belvedere,E 5TH ST,N BELVEDERE AVE,-110.897201,32.228946,-214748363.0,1.0,85711
13713.0,5SBL(SE),5th St/Belvedere,E 5TH ST,N BELVEDERE AVE,-110.896522,32.228768,-214748363.0,1.0,85711
13835.0,5SCA(NE),5th St/Catalina,E 5TH ST,N CATALINA AVE,-110.898632,32.22895,-214748363.0,1.0,85711
13862.0,5SCH(SE),5th St/Chantilly,E 5TH ST,N CHANTILLY DR,-110.867541,32.228828,-214748363.0,1.0,85711
13836.0,5SCO(NW),5th St/Columbus,E 5TH ST,N COLUMBUS BLVD,-110.901635,32.228966,-214748363.0,1.0,85711
13712.0,5SCO(SE),5th St/Columbus,E 5TH ST,N COLUMBUS BLVD,-110.90047,32.228761,-214748363.0,1.0,85711
13828.0,5SCR(NW),5th St/Craycroft,E 5TH ST,N CRAYCROFT RD,-110.876067,32.229038,-214748363.0,1.0,85711
13860.0,5SCR(SE),5th St/Craycroft,E 5TH ST,N CRAYCROFT RD,-110.874747,32.228795,-214748363.0,1.0,85711
13838.0,5SDO(NW),5th St/Dodge,E 5TH ST,N DODGE BLVD,-110.913556,32.228923,-214748363.0,1.0,85716
13710.0,5SDO(SE),5th St/Dodge,E 5TH ST,N DODGE BLVD,-110.913638,32.228792,-214748363.0,1.0,85716
13825.0,5SIH(NW),5th St/Indian House,E 5TH ST,N INDIAN HOUSE RD,-110.863839,32.22896,-214748363.0,1.0,85711
13863.0,5SIH(SE),5th St/Indian House,E 5TH ST,N INDIAN HOUSE RD,-110.863382,32.228822,-214748363.0,1.0,85711
13837.0,5SIR(NW),5th St/Irving,E 5TH ST,N IRVING AV,-110.905619,32.228939,-214748363.0,1.0,85711
13711.0,5SIR(SE),5th St/Irving,E 5TH ST,N COLUMBUS BLVD,-110.905056,32.228781,-214748363.0,1.0,85711
13840.0,5SJO(NW),5th St/Jones,E 5TH ST,N JONES AVE,-110.920135,32.228935,-214748363.0,1.0,85716
13708.0,5SJO*SE*,5th St/Jones,E 5TH ST,N JONES BLVD,-110.919636,32.228752,-214748363.0,1.0,85716
13826.0,5SMC(NE),5th St/McKinley,E 5TH ST,N CHANTILLY DR,-110.868583,32.228999,-214748363.0,1.0,85711
13839.0,5SPV(NW),5th St/Palo Verde,E 5TH ST,N PALO VERDE AVE,-110.918571,32.228921,-214748363.0,1.0,85716
13709.0,5SPV(SE),5th St/Palo Verde,E 5TH ST,N PALO VERDE AVE,-110.917817,32.228772,-214748363.0,1.0,85716
13831.0,5SRO(NE),5th St/Rosemont,E 5TH ST,N ROSEMONT BLVD,-110.883654,32.229002,-214748363.0,1.0,85711
13716.0,5SRO(SE),5th St/Rosemont,E 5TH ST,N ROSEMONT BLVD,-110.88356,32.228856,-214748363.0,1.0,85711
13864.0,5SRU*SE*,5th St/Ruston,E 5TH ST,N RUSTON AVE,-110.860497,32.228826,-214748363.0,1.0,85711
13833.0,5SSW(NW),5th St/Swan,E 5TH ST,N SWAN RD,-110.892833,32.228936,-214748363.0,1.0,85711
13714.0,5SSW(SE),5th St/Swan,E 5TH ST,N SWAN RD,-110.892112,32.228737,-214748363.0,1.0,85711
13827.0,5SVB(NW),5th St/Van Buren,E 5TH ST,N VAN BUREN AVE,-110.871456,32.229007,-214748363.0,1.0,85711
13861.0,5SVB(SE),5th St/Van Buren,E 5TH ST,N VAN BUREN AV,-110.870801,32.228827,-214748363.0,1.0,85711
13823.0,5SWI(NW),5th St/Wilmot,E 5TH ST,N WILMOT RD,-110.858794,32.229015,-214748363.0,1.0,85711
16272.0,5SWO(NE),5th St/Woodland,E 5TH ST,N WOODLAND AVE,-110.877519,32.22901,-214748363.0,1.0,85711
13474.0,6A12(SE),6th Av/12th St,S 6TH AVE,E 12TH ST,-110.968502,32.219596,-214748363.0,1.0,85701
16204.0,6A12(SW),6th Av/12th St,S 6TH AVE,E 12TH ST,-110.968688,32.219715,-214748363.0,1.0,85701
16189.0,6A14(SW),6th Av/14th St,S 6TH AVE,E 14TH ST,-110.968665,32.217121,-214748363.0,1.0,85701
16100.0,6A15(NE),6th Av/15th St,S 6TH AVE,E 15TH ST,-110.968493,32.216205,-214748364.0,1.0,85701
13472.0,6A17(NE),6th Av/17th St,S 6TH AVE,E 17TH ST,-110.968453,32.213638,-214748363.0,1.0,85701
13438.0,6A18(SW),6th Av/18th St,S 6TH AVE,E 18TH ST,-110.968643,32.211285,-214748363.0,1.0,85701
13439.0,6A20(NW),6th Av/20th St,S 6TH AVE,E 20TH ST,-110.968613,32.209602,-214748363.0,1.0,85701
13470.0,6A20(SE),6th Av/20th St,S 6TH AVE,E 20TH ST,-110.968363,32.209752,-214748363.0,1.0,85701
13469.0,6A22(NE),6th Av/22nd St,S 6TH AVE, ,-110.968394,32.207276,-214748363.0,1.0,85701
13440.0,6A22(SW),6th Av/22nd St,S 6TH AVE,E 22ND ST,-110.968602,32.20595,-214748363.0,1.0,85713
13467.0,6A26(NE),6th Av/26th St,S 6TH AVE,E 26TH ST,-110.968371,32.202761,-214748363.0,1.0,85713
13441.0,6A27(SW),6th Av/27th St,S 6TH AV,E 27TH ST,-110.968612,32.201252,-214748363.0,1.0,85713
76.0,6A29(NE),6th Av/29th St,S 6TH AVE,E 29TH ST,-110.968342,32.200089,-214748363.0,1.0,85713
91.0,6A29(SW),6th Av/29th St,S 6TH AVE,W 29TH ST,-110.968585,32.199086,-214748363.0,1.0,85713
13466.0,6A31(NE),6th Av/31st St,S 6TH AVE,E 31ST ST,-110.968275,32.197907,-214748363.0,1.0,85713
13465.0,6A33(SE),6th Av/33rd St,S 6TH AV,E 33RD ST,-110.968274,32.195417,-214748363.0,1.0,85713
13443.0,6A34(SW),6th Av/34th St,S 6TH AV,E 34TH ST,-110.968526,32.193772,-214748364.0,1.0,85713
13464.0,6A36(NE),6th Av/36th St,S 6TH AVE,E 36TH ST,-110.968292,32.192723,-214748363.0,1.0,85713
13444.0,6A37(NW),6th Av/37th St,S 6TH AVE,E OLD VAIL RD,-110.968462,32.191727,-214748363.0,1.0,85713
13463.0,6A39(NE),6th Av/39th St,S 6TH AVE,E 39TH ST,-110.968214,32.189814,-214748363.0,1.0,85713
13445.0,6A39(SW),6th Av/39th St,S 6TH AVE,E 39TH ST,-110.968509,32.189044,-214748363.0,1.0,85713
13446.0,6A44(NW),6th Av/44th St,S 6TH AVE,W 44TH ST,-110.968471,32.185302,-214748363.0,1.0,85713
16293.0,6A44(SE),6th Av/44th St,S 6TH AVE,W 44TH ST,-110.968226,32.184924,-214748363.0,1.0,85713
11060.0,6AAJ(NE),6th Av/Ajo,S 6TH AVE,W AJO WAY,-110.968172,32.178202,-214748363.0,1.0,85723
11689.0,6AAJ(SW),6th Av/Ajo,S 6TH AVE,W AJO WAY,-110.968369,32.177573,-214748363.0,1.0,85714
11112.0,6ABI(NE),6th Av/Bilby,S 6TH AVE,W BILBY RD,-110.967891,32.141625,-214748363.0,1.0,85706
13980.0,6ABI(SW),6th Av/Bilby,S 6TH AVE,E BILBY RD,-110.968083,32.140962,-214748363.0,1.0,85706
11113.0,6ADE(NE),6th Av/Delta,S 6TH AV,E DELTA RD,-110.967893,32.145262,-214748363.0,1.0,85706
13979.0,6ADE(SW),6th Av/Delta,S 6TH AVE,W DELTA ST,-110.968052,32.144681,-214748363.0,1.0,85706
10930.0,6ADI(SE),6th Av/District,S 6TH AVE,E DISTRICT ST,-110.968131,32.173801,-214748363.0,1.0,85714
11061.0,6ADI(SW),6th Av/District,S 6TH AVE,W DISTRICT ST,-110.968322,32.173812,-214748363.0,1.0,85714
207.0,6ADR(NE),6th Av/Drexel,S 6TH AVE,W DREXEL RD,-110.968021,32.14882,-214748363.0,1.0,85706
208.0,6ADR(SW),6th Av/Drexel,S 6TH AVE,E DREXEL RD,-110.968079,32.148324,-214748363.0,1.0,85706
11064.0,6AIL(NW),6th Av/Illinois,S 6TH AVE,W ILLINOIS ST,-110.968295,32.169077,-214748363.0,1.0,85714
10928.0,6AIL(SE),6th Av/Illinois,S 6TH AVE,W ILLINOIS ST,-110.968109,32.168589,-214748363.0,1.0,85714
10926.0,6AIR(NE),6th Av/Irvington,S 6TH AVE,E IRVINGTON RD,-110.968052,32.163709,-214748363.0,1.0,85714
11063.0,6AMI(NW),6th Av/Michigan,S 6TH AVE,W MICHIGAN DR,-110.9683,32.170709,-214748363.0,1.0,85714
10929.0,6AMI(SE),6th Av/Michigan,S 6TH AVE,E MICHIGAN DR,-110.968115,32.170158,-214748363.0,1.0,85714
12062.0,6ANE(SW),6th Av/Nebraska,S 6TH AVE,E NEBRASKA ST,-110.96814,32.155599,-214748363.0,1.0,85706
10927.0,6AOK(NE),6th Av/Oklahoma,S 6TH AVE,W OKLAHOMA ST,-110.968078,32.165405,-214748363.0,1.0,85714
11065.0,6AOK(SW),6th Av/Oklahoma,S 6TH AV,W OKLAHOMA ST,-110.968317,32.164891,-214748363.0,1.0,85714
16273.0,6AOR(SE),6th Av/Oregon St,S 6TH AVE,E DREXEL RD,-110.967997,32.153058,-214748363.0,1.0,85706
16271.0,6AOR(SW),6th Av/Oregon St,S 6TH AVE,E DREXEL RD,-110.968189,32.153006,-214748363.0,1.0,85706
15933.0,6APE(NE),6th Av/Pennington,N 6TH AVE,E PENNINGTON ST,-110.968546,32.223785,-214748364.0,1.0,85701
42.0,6APE(SE),6th Av/Pennington,N 6TH AVE,W RONSTADT TRANSIT CENTER DR,-110.968582,32.223375,-214748363.0,1.0,85701
10931.0,6APR(SE),6th Av/President,S 6TH AVE,E LINCOLN ST,-110.968173,32.176542,-214748363.0,1.0,85714
240.0,6AVA(NE),6th Av/Valencia,S 6TH AVE,E VALENCIA RD,-110.967856,32.134741,-214748363.0,1.0,85706
13461.0,6AVE(NE),6th Av/Veterans,S 6TH AVE,W VETERANS BLVD,-110.9682,32.181792,-214748363.0,1.0,85723
13447.0,6AVE(SW),6th Av/Veterans,S 6TH AVE,W VETERANS BLVD,-110.96845,32.180878,-214748363.0,1.0,85713
11111.0,6AVL(SE),6th Av/Valeska,S 6TH AVE,W VALESKA ST,-110.967871,32.137173,-214748363.0,1.0,85706
13981.0,6AVL(SW),6th Av/Valeska,S 6TH AV,E VALESKA RD,-110.968066,32.137155,-214748363.0,1.0,85706
11852.0,6S3A(NE),6th St/3rd Av,E 6TH ST,N 3RD AVE,-110.963875,32.227839,-214748363.0,1.0,85705
13697.0,6S4A(SE),6th St/4th Av,E 6TH ST,N 4TH AVE,-110.96528,32.227662,-214748363.0,1.0,85705
16055.0,6SCA(NW),6th St/Campbell,E 6TH ST,N MARTIN AVE,-110.944655,32.227982,-214748363.0,1.0,85719
29.0,6SCA(SE),6th St/Campbell,E 6TH ST,N CAMPBELL AVE,-110.942714,32.227727,-214748363.0,1.0,85719
11844.0,6SCC(NW),6th St/Country Club,E 6TH ST,N COUNTRY CLUB RD,-110.927181,32.22844,-214748363.0,1.0,85716
13707.0,6SCC(SW),6th St/Country Club,E 6TH ST,N COUNTRY CLUB RD,-110.927319,32.228175,-214748363.0,1.0,85716
11848.0,6SCH(NE),6th St/Cherry,E 6TH ST,N CHERRY AVE,-110.947836,32.227947,-214748363.0,1.0,85719
11739.0,6SCH(SE),6th St/Cherry,E 6TH ST,N CHERRY AVE,-110.947772,32.227716,-214748363.0,1.0,85719
16111.0,6SEU(NW),6th St/Euclid,E 6TH ST,N EUCLID AVE,-110.960047,32.227859,-214748363.0,1.0,85719
11735.0,6SEU(SE),6th St/Euclid,E 6TH ST,N EUCLID AVE,-110.958997,32.227689,-214748363.0,1.0,85719
14977.0,6SFR(SW),6th St/Fremont,E 6TH ST,N FREMONT AVE,-110.955287,32.227698,-214748363.0,1.0,85719
15942.0,6SHI(NW),6th St/Highland,E 6TH ST,N MOUNTAIN AVE,-110.951856,32.227929,-214748363.0,1.0,85719
11738.0,6SHI(SE),6th St/Highland,E 6TH ST,N HIGHLAND AVE,-110.950125,32.227678,-214748363.0,1.0,85719
11736.0,6SPA(NW),6th St/Park Av,E 6TH ST,N PARK AV,-110.956818,32.227868,-214748363.0,1.0,85719
11847.0,6SPL(NW),6th St/Plumer,E 6TH ST,N PLUMER AVE,-110.939791,32.227936,-214748363.0,1.0,85719
11740.0,6SPL(SE),6th St/Plumer,E 6TH ST,N PLUMER AVE,-110.93915,32.227843,-214748363.0,1.0,85719
13698.0,6STH(EB),6th St/Tucson High School,E 6TH ST,N 1ST AVE,-110.961546,32.227642,-214748363.0,1.0,85705
11845.0,6STR(NW),6th St/Treat,E 6TH ST,N TREAT AVE,-110.931331,32.22802,-214748363.0,1.0,85716
11742.0,6STR(SE),6th St/Treat,E 6TH ST,N TREAT AVE,-110.930827,32.227851,-214748363.0,1.0,85716
11846.0,6STU(NW),6th St/Tucson,E 6TH ST,N TUCSON BLVD,-110.936045,32.227989,-214748363.0,1.0,85719
11741.0,6STU(SW),6th St/Tucson,E 6TH ST,N TUCSON BLVD,-110.935886,32.227838,-214748363.0,1.0,85719
16095.0,85LU(NW),SS/State Hwy 85/Lukeville,S STATE HIGHWAY 85,UNKNOWN,-112.81749,31.880545,-214748363.0,1.0,85341
16090.0,8615(SE),SS/State Hwy 86/Quijotoa IR 15,W STATE HIGHWAY 86,S HIGHWAY 232,-112.110539,32.158574,-214748363.0,1.0,85634
16089.0,8619(SW),SS/State Hwy 86/Sells IR 19,W STATE HIGHWAY 86,S HIGHWAY 232,-111.890475,31.921305,-214748363.0,1.0,85634
16093.0,8634(NE),SS/State Hwy 86/Hickiwan IR 34,W STATE HIGHWAY 86,S INDIAN ROUTE 1,-112.571772,32.206282,-214748363.0,1.0,85634
16094.0,86GS(SW),SS/State Hwy 86/GunSight Valley,S STATE HIGHWAY 86, ,-112.686728,32.222165,-214748363.0,1.0,85634
16088.0,86RJ(SE),SS/State Hwy 86/Robles Jct,W AJO HY,S HONEYSUCKLE FARM TR,-111.312712,32.07678,-214748364.0,1.0,85735
16092.0,86SS(SW),SS/State Hwy 86/San Simon,UNKNOWN,W STATE HIGHWAY 86,-112.360381,32.183268,-214748363.0,1.0,85634
16096.0,86WH(NE),SS/State Hwy 86/Why,S STATE HIGHWAY 86,S INDIAN ROUTE 1,-112.736702,32.264087,-214748363.0,1.0,85321
16076.0,ADAM(NE),SS/Adonis Rd/Amole Ci(7),N ADONIS RD,N AMOLE CIR,-111.20933,32.45879,-214748364.0,1.0,85658
13031.0,AJ12(NW),Ajo/12th Av,W AJO WAY,S 12TH AVE,-110.978155,32.177938,-214748363.0,1.0,85713
13016.0,AJ12(SE),Ajo/12th Av,W AJO WAY,S 12TH AVE,-110.976974,32.177679,-214748363.0,1.0,85713
13032.0,AJ16(NW),Ajo/16th Av,W AJO WAY,S 16TH AVE,-110.981702,32.177962,-214748363.0,1.0,85713
13014.0,AJ16(SE),Ajo/16th Av,W AJO WAY,S 16TH AVE,-110.980778,32.177739,-214748363.0,1.0,85713
11059.0,AJ2A(NW),Ajo/2rd Av,E AJO WAY,S 2ND AVE,-110.963149,32.177931,-214748363.0,1.0,85723
16330.0,AJ2A(SW),Ajo/2nd Av,E AJO WY,S 3RD AV,-110.963055,32.177765,-214748364.0,1.0,85713
11561.0,AJ6A(NW),Ajo/6th Av,W AJO WAY,S 6TH AVE,-110.968631,32.177899,-214748363.0,1.0,85713
10932.0,AJ6A(SE),Ajo/6th Av,E AJO WAY,S 6TH AVE,-110.967818,32.177805,-214748363.0,1.0,85713
11056.0,AJBE(NW),Ajo/Bernard,E AJO WAY,E BERNARD DR,-110.950232,32.177981,-214748363.0,1.0,85713
11057.0,AJBH(NW),Ajo/Benson Hwy,E AJO WAY,E BENSON HWY,-110.952968,32.177965,-214748363.0,1.0,85713
10935.0,AJBH(SE),Ajo/Benson Hwy,E AJO WAY,E BENSON HWY,-110.951494,32.177822,-214748363.0,1.0,85713
10942.0,AJCC(SE),Ajo/Country Club,E AJO WAY,S COUNTRY CLUB RD,-110.925791,32.177816,-214748364.0,1.0,85713
13033.0,AJCO(NW),Ajo/Cottonwood,W AJO WAY,COTTONWOOD,-110.991732,32.17794,-214748363.0,1.0,85713
13038.0,AJCO(SE),Ajo/Cook,W AJO WY,S COOK ST,-111.006449,32.177795,-214748363.0,1.0,85713
11053.0,AJFO(NW),Ajo/Forgeus,E AJO WAY,S FORGEUS AVE,-110.932545,32.178047,-214748363.0,1.0,85713
10939.0,AJFO(SE),Ajo/Forgeus,E AJO WAY,S FORGEUS AVE,-110.931857,32.177853,-214748363.0,1.0,85713
13036.0,AJFR(NW),Ajo/Freedom Drive,W AJO WAY,S FREEDOM DR,-110.999244,32.177946,-214748363.0,1.0,85713
11058.0,AJGE(MB),Ajo/Golden Eagle Distrib,E AJO WAY,S 2ND AVE,-110.95984,32.17797,-214748363.0,1.0,85713
16337.0,AJHI(NW),Ajo/Holiday Isle Blvd, , ,-110.995344,32.177973,-214748364.0,1.0,85713
13012.0,AJHI(SE),Ajo/Holiday Isle Blvd,W AJO WAY,S HOLIDAY BLVD,-110.994204,32.177761,-214748364.0,1.0,85713
10937.0,AJJC(EB),Ajo/Juvenile Center, , ,-110.939097,32.177784,-1.0,1.0,85713
11055.0,AJJC(WB),Ajo/Juvenile Court,E AJO WAY,W I10 RAMP,-110.939841,32.178005,-214748363.0,1.0,85713
13030.0,AJLI(NW),Ajo/Liberty,W AJO WAY,S LIBERTY AVE,-110.974071,32.177884,-214748363.0,1.0,85713
13017.0,AJLI(SE),Ajo/Liberty,W AJO WAY,S LIBERTY AVE,-110.973426,32.177735,-214748363.0,1.0,85713
268.0,AJMI(SE),Ajo/Mission SE,W AJO WAY,E WOODLAND RD,-111.002689,32.177788,-214748363.0,1.0,85713
117.0,AJPA(NW),Ajo/Park Av NW,W INA RD,N STARCOMMERCE WAY,-110.957236,32.177995,-214748364.0,1.0,85713
128.0,AJPA(SE),Ajo/Park Av SE,E AJO WY,S PARK AV,-110.95603,32.177774,-214748363.0,1.0,85713
10938.0,AJPC(EB),Ajo/P.C. Sheriffs Dept, , ,-110.936458,32.177801,-1.0,1.0,85713
11054.0,AJPC(WB),Ajo/P.C. Sheriffs Dept.,E AJO WAY,S FORGEUS AVE,-110.936186,32.178033,-214748363.0,1.0,85713
13010.0,AJPL(SW),Ajo/Plaza Del Sol,W AJO WAY,S VIA CANTO,-111.00043,32.177737,-214748363.0,1.0,85713
11049.0,AJPV(NW),Ajo/Palo Verde,E AJO WAY,S PALO VERDE RD,-110.919383,32.178176,-214748364.0,1.0,85713
11050.0,AJRA(NW),Ajo/Randolph Av,E AJO WAY,S RANDOLPH AVE,-110.922951,32.178184,-214748364.0,1.0,85713
10943.0,AJRA(SE),Ajo/Randolph Av,E AJO WAY,S RANDOLPH AVE,-110.922051,32.177774,-214748364.0,1.0,85713
13011.0,AJSC(SW),Ajo/School@1573 W Ajo,W AJO WAY,S PHOEBE AVE,-110.997973,32.177793,-214748363.0,1.0,85713
10934.0,AJTP(SW),Ajo/Thomas O Price Center,E AJO WAY,S PARK AVE,-110.959004,32.17782,-214748363.0,1.0,85713
13013.0,AJVA(SW),Ajo/Valley Rd,W AJO WAY,S VALLEY RD,-110.991692,32.177715,-214748363.0,1.0,85713
11172.0,ALCO(NW),Alameda/Court Av,W ALAMEDA ST,N COURT AVE,-110.97419,32.223427,-214748363.0,1.0,85701
12446.0,ALCO(SE),Alameda/Court Av,W ALAMEDA ST,N COURT AVE,-110.973453,32.223558,-214748363.0,1.0,85701
10858.0,ALGR(NW),Alameda/Grossetta,E ALAMEDA ST, ,-110.970862,32.224425,-214748363.0,1.0,85701
16157.0,AMAS(NE),Auto Mall Dr/Auto Sprint Rd,W AUTO MALL DR,N AUTO SPRINT RD,-110.983468,32.290111,-214748363.0,1.0,85705
16158.0,AMAS(SE),Auto Mall Dr/Auto Sprint Rd,W AUTO MALL DR,N AUTO SPRINT RD,-110.983609,32.289897,-214748363.0,1.0,85705
11321.0,AMOR(NW),Auto Mall Dr/Oracle,W AUTO MALL DR,N CIRCUIT RD,-110.979145,32.290148,-214748363.0,1.0,85705
11438.0,AMOR(SW),Auto Mall Dr/Oracle,W AUTO MALL DR,N CIRCUIT RD,-110.979563,32.289981,-214748363.0,1.0,85705
11435.0,AMWE(NE),Auto Mall Dr/Wetmore,W AUTO MALL DR,N FAIRVIEW AVE,-110.986542,32.287229,-214748363.0,1.0,85705
16113.0,AN20(WB),Anklam/2002 W Anklam,W ANKLAM RD,N LA CHOLLA BLVD,-111.009895,32.225068,-214748363.0,1.0,85745
16005.0,ANAV(NE),SS/Anway Rd/Avra Valley Rd,N SUN TRAN BLVD,E TANGELO DR,-111.321081,32.379386,-214748364.0,1.0,85653
16069.0,ANAV(NW),SS/Anway Rd/Avra Valley Rd,N ANWAY RD,W AVRA VALLEY RD,-111.321182,32.378983,-214748364.0,1.0,85653
13680.0,ANLC(SE),Anklam/La Cholla,W ANKLAM RD,N LA CHOLLA BLVD,-111.011841,32.224876,-214748363.0,1.0,85745
12583.0,ANSA(SE),Anklam/Cmo Santiago,W ANKLAM RD,N COURT AVE,-111.007111,32.225127,-214748363.0,1.0,85745
14903.0,APFS(IF),Aero Park Bl/Flight Safety,E AERO PARK BLVD, ,-110.956954,32.110931,-214748363.0,1.0,85756
139.0,AV22(NE),Alvernon/22nd St NE,S ALVERNON WY,E 22ND ST,-110.909478,32.207339,-214748363.0,1.0,85711
136.0,AV22(SW),Alvernon/22nd St SW,S ALVERNON WAY,E 22ND ST,-110.909716,32.206401,-214748363.0,1.0,85711
292.0,AV27(NE),Alvernon/27th St NE,S ALVERNON WY,E 27TH ST,-110.909425,32.202915,-214748363.0,1.0,85711
303.0,AV27(SW),Alvernon/27th St SW,S ALVERNON WY,E 27TH ST,-110.909611,32.202531,-214748363.0,1.0,85711
10969.0,AV29(NE),Alvernon/29th St,S ALVERNON WAY,E 29TH ST,-110.909348,32.200443,-214748363.0,1.0,85711
10980.0,AV2S(NE),Alvernon/2nd St,N ALVERNON WAY,E 2ND ST,-110.909535,32.234588,-214748363.0,1.0,85711
11018.0,AV32(NW),Alvernon/32nd St(NW),S ALVERNON WAY, ,-110.90962,32.201038,-214748363.0,1.0,85711
11027.0,AV32(SW),Alvernon/32nd St(SW),S ALVERNON WAY,E HAYNE ST,-110.909527,32.199108,-214748363.0,1.0,85711
10979.0,AV3S(SE),Alvernon/3rd St,N ALVERNON WAY,E 4TH ST,-110.909519,32.231549,-214748363.0,1.0,85711
11005.0,AV3S(SW),Alvernon/3rd St,N ALVERNON WAY,E 3RD ST,-110.909729,32.232326,-214748363.0,1.0,85711
10978.0,AV5S(NE),Alvernon/5th St,N ALVERNON WAY,E 4TH ST,-110.909499,32.229333,-214748363.0,1.0,85711
16188.0,AV5S(SW),Alvernon/5th St,N ALVERNON WAY,E C GUAYMAS,-110.9097,32.228423,-214748363.0,1.0,85711
14423.0,AVAN(NE),Alvernon/Antrim Loop,S ALVERNON WAY,E TRANSCON WAY,-110.909228,32.138259,-214748363.0,1.0,85706
14803.0,AVBH(SW),Alvernon/Benson Hwy,S ALVERNON WAY,E BENSON HWY,-110.909363,32.146406,-214748363.0,1.0,85706
10987.0,AVBL(NE),Alvernon/Blacklidge,N ALVERNON WAY,E BLACKLIDGE DR,-110.909705,32.261777,-214748363.0,1.0,85712
10996.0,AVBL(NW),Alvernon/Blacklidge,N ALVERNON WAY,E BLACKLIDGE DR,-110.909908,32.261806,-214748363.0,1.0,85712
120.0,AVBR(NE),Alvernon/Broadway NE,N ALVERNON WAY,E BROADWAY BLVD,-110.90947,32.221808,-214748363.0,1.0,85711
125.0,AVBR(SW),Alvernon/Broadway SW,S ALVERNON WAY,E BROADWAY BLVD,-110.90973,32.221323,-214748363.0,1.0,85711
11014.0,AVDO(SW),Alvernon/Pso Dorado,S ALVERNON WAY,E PSO DORADO,-110.909783,32.210197,-214748363.0,1.0,85711
11007.0,AVDS(NW),Alvernon/C De Soto,N ALVERNON WAY,E C DE SOTO,-110.909602,32.225326,-214748363.0,1.0,85716
10982.0,AVFA(NE),Alvernon/Fairmount,N ALVERNON WAY,E FAIRMOUNT ST,-110.909653,32.240087,-214748363.0,1.0,85712
11002.0,AVFA(SW),Alvernon/Fairmount,N ALVERNON WAY,E FAIRMOUNT ST,-110.909821,32.239604,-214748363.0,1.0,85712
10985.0,AVFL(NE),Alvernon/Flower,N ALVERNON WAY,E FLOWER ST,-110.909662,32.25451,-214748363.0,1.0,85712
10998.0,AVFL(NW),Alvernon/Flower,N ALVERNON WAY,E FLOWER ST,-110.909844,32.254412,-214748363.0,1.0,85712
14926.0,AVFT(NE),Alvernon/Fort Lowell,N ALVERNON WAY,E FORT LOWELL RD,-110.909754,32.265339,-214748363.0,1.0,85712
14930.0,AVFT(SW),Alvernon/Fort Lowell,N ALVERNON WAY,E PRESIDIO RD,-110.909929,32.264883,-214748363.0,1.0,85712
10986.0,AVGL(NE),Alvernon/Glenn,N ALVERNON WAY,E GLENN ST,-110.909697,32.258229,-214748363.0,1.0,85712
10997.0,AVGL(NW),Alvernon/Glenn,N ALVERNON WAY,E GLENN ST,-110.909943,32.258186,-214748363.0,1.0,85716
121.0,AVGR(NE),Alvernon/Grant NE,N ALVERNON WAY,E GRANT RD,-110.909612,32.251315,-214748363.0,1.0,85712
124.0,AVGR(SW),Alvernon/Grant SW,N ALVERNON WAY,E GRANT RD,-110.909802,32.250399,-214748363.0,1.0,85712
10973.0,AVHA(NE),Alvernon/Hayne,S ALVERNON WAY,E TIMROD ST,-110.909475,32.214604,-214748363.0,1.0,85711
11013.0,AVHA(SW),Alvernon/Hayne,S ALVERNON WAY,E HAYNE ST,-110.909707,32.213996,-214748363.0,1.0,85711
10977.0,AVHO(SE),Alvernon/Holmes,N ALVERNON WAY,E HOLMES ST,-110.909427,32.226804,-214748363.0,1.0,85711
14929.0,AVHR(SW),Alvernon/Hardy,N ALVERNON WAY, ,-110.909872,32.267278,-214748363.0,1.0,85712
14927.0,AVKL(NE),Alvernon/Kleindale,N ALVERNON WAY, ,-110.9098,32.269081,-214748363.0,1.0,85712
14928.0,AVKL(NW),Alvernon/Kleindale,N ALVERNON WAY, ,-110.909864,32.269081,-214748363.0,1.0,85712
10983.0,AVPI(NE),Alvernon/Pima,N ALVERNON WAY,E LOUIS LN,-110.909575,32.243786,-214748363.0,1.0,85712
11001.0,AVPI(SW),Alvernon/Pima sw,N ALVERNON WAY,E PIMA ST,-110.909753,32.243048,-214748363.0,1.0,85716
10972.0,AVSB(NE),Alvernon/Sta Barbara,S ALVERNON WAY,E SANTA BARBARA AVE,-110.909531,32.211805,-214748363.0,1.0,85711
10984.0,AVSE(NE),Alvernon/Seneca,N ALVERNON WAY,E SENECA ST,-110.909634,32.247259,-214748363.0,1.0,85712
11000.0,AVSE(SW),Alvernon/Seneca,N ALVERNON WAY,E SENECA ST,-110.909797,32.246881,-214748363.0,1.0,85712
10981.0,AVSP(NE),Alvernon/Speedway,N ALVERNON WAY,E WHITTIER ST,-110.909602,32.236453,-214748363.0,1.0,85716
11610.0,AVSP(SW),Alvernon/Speedway,N ALVERNON WY,E SPEEDWAY BL,-110.909823,32.235714,-214748363.0,1.0,85716
14805.0,AVTR(SW),Alvernon/Transcon Wy,S ALVERNON WAY,E TRANSCON WAY,-110.909619,32.137195,-214748363.0,1.0,85706
16134.0,AVVA(NE),Alvernon/Valencia,S ALVERNON WAY,E VALENCIA RD,-110.909308,32.135056,-214748363.0,1.0,85706
16163.0,AVVA(SW),Alvernon/Valencia,S ALVERNON WAY, ,-110.909693,32.132949,-214748363.0,1.0,85756
10974.0,AVWH(NE),Alvernon/Whittier,S ALVERNON WAY,E WHITTIER ST,-110.909517,32.218166,-214748363.0,1.0,85711
11012.0,AVWH(NW),Alvernon/Whittier,S ALVERNON WY,E WHITTIER ST,-110.909699,32.217974,-214748363.0,1.0,85711
14424.0,AVWR(NE),Alvernon/White River,S ALVERNON WY,E WHITE RIVER DR,-110.909182,32.142855,-214748363.0,1.0,85706
14804.0,AVWR(SW),Alvernon/White River,S ALVERNON WAY,E WHITE RIVER DR,-110.909519,32.141554,-214748363.0,1.0,85706
219.0,BEBH(NW),Belvedere/Benson Hwy,S BELVEDERE AVE,E BENSON HWY,-110.896394,32.139407,-214748363.0,1.0,85706
12668.0,BERA(SW),Belvedere/Ray Strav,S BELVEDERE AVE,E RAY ST,-110.896496,32.145205,-214748363.0,1.0,85706
12669.0,BERE(SW),Belvedere/Rex Strav,S BELVEDERE AV,E REX SV,-110.896404,32.141523,-214748363.0,1.0,85706
14598.0,BEVI(NE),Cmo Benem/C Vicam,S CAMINO BENEM,W LOS REALES RD,-111.068856,32.116824,-214748363.0,1.0,85757
14387.0,BH35(EB),Benson Hy/3562 E Benson,E BENSON HWY,E DREXEL RD,-110.915467,32.150565,-214748363.0,1.0,85706
12660.0,BH35(WB),Benson Hy/3562 E Benson,E BENSON HWY,E DREXEL RD,-110.915317,32.15069,-214748363.0,1.0,85706
12681.0,BHAV(NW),Benson Hy/Alvernon,E BENSON HY,S ALVERNON WY,-110.9102,32.147567,-214748363.0,1.0,85706
14931.0,BHCO(NW),Benson Hy/Columbus Blvd,E BENSON HWY,E PRISER LOOP,-110.901576,32.142022,-214748363.0,1.0,85706
12682.0,BHDR(NW),Benson Hy/Drexel,E BENSON HWY,E DREXEL RD,-110.912761,32.149075,-214748363.0,1.0,85706
16318.0,BHDR(SE),Benson Hy/Drexel,E BENSON HY, ,-110.912403,32.148595,-214748364.0,1.0,85706
14802.0,BHHA(NW),Benson Hy/Hartford Strav,E BENSON HWY,S HARTFORD STRA,-110.905805,32.144635,-214748363.0,1.0,85706
16255.0,BHMA(NE),Benson Hy/Masterson,E BENSON HWY,E HOLLADAY ST,-110.921291,32.154553,-214748364.0,1.0,85706
16254.0,BHMA(SE),Benson Hy/Masterson,E BENSON HWY,E HOLLADAY ST,-110.921296,32.154219,-214748363.0,1.0,85706
12684.0,BHPV(NW),Benson Hy/Palo Verde,E BENSON HWY,S PALO VERDE RD,-110.918404,32.152681,-214748363.0,1.0,85706
12659.0,BHPV(SW),Benson Hy/Palo Verde,E BENSON HWY,S PALO VERDE RD,-110.91863,32.152476,-214748363.0,1.0,85706
12386.0,BICA(NW),Bilby/Campbell,E BILBY RD,S DEL MORAL BLVD,-110.944288,32.141353,-214748363.0,1.0,85706
12370.0,BICA(SW),Bilby/Campbell,E BILBY RD,S CAMPBELL AVE,-110.944226,32.141245,-214748363.0,1.0,85706
16064.0,BILI(NE),SS/Branding Iron Ci/Lightning L Pl,S BRANDING IRON CIR,W LIGHTNING L,-111.109553,32.145077,-214748364.0,1.0,85757
14299.0,BIPK(SE),Bilby/Park Av,E BILBY RD,S JEANETTE BLVD,-110.95493,32.14128,-214748364.0,1.0,85706
12388.0,BIRA(NW),Bilby/Randall,E BILBY RD,S RANDALL BLVD,-110.952288,32.141392,-214748363.0,1.0,85706
12368.0,BIRA(SE),Bilby/Randall,E BILBY RD,S RANDALL BLVD,-110.951832,32.141227,-214748363.0,1.0,85706
12387.0,BIST(NE),Bilby/Stewart,E BILBY RD,S STEWART BLVD,-110.94987,32.141402,-214748363.0,1.0,85706
12369.0,BIST(SE),Bilby/Stewart,E BILBY RD,S DEL MORAL BLVD,-110.949544,32.14124,-214748363.0,1.0,85706
16385.0,BOAL(NE),SS/Bopp/Aldon NE, , ,-111.120171,32.177323,-214748364.0,1.0,85735
14419.0,BOAP(IN),Bombardier/Aeropark Blvd,E AERO PARK PARKING LOOP,S RAYTHEON WAY,-110.953801,32.113844,-214748363.0,1.0,85756
16386.0,BOHO(SW),SS/Bopp/Hogan SW, , ,-111.128106,32.17721,-214748364.0,1.0,85735
16384.0,BOSH(NE),SS/Bopp Rd/Shiela Ave NE, , ,-111.102674,32.177409,-214748364.0,1.0,85735
16062.0,BOSJ(SE),SS/Bopp Rd/San Joaquin Rd,W BOPP RD,S SAN JOAQUIN RD,-111.144905,32.177135,-214748363.0,1.0,85735
10861.0,BR4A(SW),Broadway/4th Av,E BROADWAY BLVD,S 4TH AVE,-110.965693,32.221165,-214748363.0,1.0,85701
10860.0,BR6A(SE),SL/Broadway/6th Av,E BROADWAY BLVD,S 6TH AVE,-110.968347,32.221149,-214748363.0,1.0,85701
14336.0,BRAL(NW),Broadway/Alvernon,E BROADWAY BLVD,N ALVERNON WAY,-110.91027,32.221727,-214748364.0,1.0,85716
11008.0,BRAL(SE),Broadway/Alvernon,E BROADWAY BLVD,S ALVERNON WAY,-110.909156,32.221436,-214748363.0,1.0,85711
16234.0,BRAR(NE),Broadway/Arcadia,E BROADWAY BLVD,N ARCADIA AVE,-110.887113,32.221684,-214748363.0,1.0,85711
13415.0,BRBE(NE),Broadway/Belvedere,E BROADWAY BL,N BELVEDERE AV,-110.896345,32.221724,-214748363.0,1.0,85711
13495.0,BRBE(SE),Broadway/Belvedere,E BROADWAY BLVD,N BELVEDERE AVE,-110.895722,32.221321,-214748363.0,1.0,85711
16268.0,BRBO(SE),Broadway/Bonanza,E BROADWAY BLVD,S LONDON STATION RD,-110.779701,32.220822,-214748363.0,1.0,85748
13410.0,BRBV(NW),Broadway/Beverly,E BROADWAY BLVD,N BEVERLY AVE,-110.880484,32.221847,-214748364.0,1.0,85711
13425.0,BRCA(NW),Broadway/Campbell,E BROADWAY BLVD,N MARTIN AVE,-110.944332,32.221509,-214748363.0,1.0,85719
13485.0,BRCA(SE),Broadway/Campbell,E BROADWAY BLVD,S KINO PW,-110.943487,32.221345,-214748363.0,1.0,85719
16368.0,BRCC(NW),Broadway/Country Club, , ,-110.927063,32.221715,-214748364.0,1.0,85716
13490.0,BRCC(SE),Broadway/Country Club,E BROADWAY BLVD,N CMO ESPANOL,-110.926237,32.221425,-214748363.0,1.0,85716
12857.0,BRCH(NE),Broadway/Chantilly,E BROADWAY BLVD,N CHANTILLY DR,-110.868089,32.221752,-214748364.0,1.0,85711
13503.0,BRCH(SE),Broadway/Chantilly,E BROADWAY BLVD,N CHANTILLY DR,-110.868113,32.221394,-214748363.0,1.0,85711
16212.0,BRCH(SW),Broadway/Church,W BROADWAY BLVD,S CHURCH AVE,-110.973118,32.221177,-214748363.0,1.0,85701
13416.0,BRCO(NW),Broadway/Columbus,E BROADWAY BL,N COLUMBUS BL,-110.901325,32.221714,-214748363.0,1.0,85711
13494.0,BRCO(SE),Broadway/Columbus,E BROADWAY BLVD,N CATALINA AVE,-110.900553,32.221378,-214748363.0,1.0,85711
13409.0,BRCR(NW),Broadway/Craycroft,E BROADWAY BLVD,N CRAYCROFT RD,-110.87568,32.221809,-214748364.0,1.0,85711
13501.0,BRCR(SE),Broadway/Craycroft,E BROADWAY BLVD,S CRAYCROFT RD,-110.874756,32.221418,-214748363.0,1.0,85711
14558.0,BRCS(NW),Broadway/Cmo Seco,E BROADWAY BLVD,N CAMINO SECO,-110.807296,32.221009,-214748363.0,1.0,85710
14546.0,BRCS(SE),Broadway/Cmo Seco,E BROADWAY BLVD,N CAMINO SECO,-110.806349,32.220839,-214748363.0,1.0,85710
274.0,BRCU(SW),SL/Broadway/Church,W BROADWAY BLVD,S CHURCH AVE,-110.972576,32.221038,-214748363.0,1.0,85701
13426.0,BRCY(NW),Broadway/Cherry,E BROADWAY BLVD,N VINE AVE,-110.948394,32.22152,-214748363.0,1.0,85719
16369.0,BRCY(SW),Broadway/Cherry, , ,-110.948297,32.221361,-214748364.0,1.0,85719
14939.0,BRDI(NW),Broadway/Dixie,E BROADWAY BLVD,N DIXIE AVE,-110.79434,32.220907,-214748363.0,1.0,85710
13419.0,BRDO(NW),Broadway/Dodge,E BROADWAY BLVD,N DODGE BLVD,-110.914323,32.221733,-214748363.0,1.0,85716
16214.0,BRDO(SE),Broadway/Dodge,E BROADWAY BLVD,N DODGE BLVD,-110.913442,32.221447,-214748363.0,1.0,85716
14938.0,BREL*SW*,Broadway/Elster,E BROADWAY BLVD,N ELSTER DR,-110.793329,32.220755,-214748363.0,1.0,85748
10925.0,BREU(NW),Broadway/Euclid,E BROADWAY BLVD,N EUCLID AVE,-110.959897,32.22152,-214748363.0,1.0,85719
13481.0,BREU(SE),Broadway/Euclid,E BROADWAY BLVD,N EUCLID AVE,-110.959201,32.221297,-214748363.0,1.0,85719
13384.0,BRFS(IF),Broadway/Fellowship Square,E BROADWAY BLVD,N SARNOFF DR,-110.818087,32.221031,-214748363.0,1.0,85710
16175.0,BRGN(SE),SL/Broadway/Granada AvSE,W CONGRESS ST,N GRANADA AVE,-110.975354,32.221284,-214748363.0,1.0,85701
14935.0,BRGO(NW),Broadway/Gollob,E BROADWAY BL,N GOLLOB RD,-110.798777,32.220918,-214748364.0,1.0,85710
14934.0,BRGO(SE),Broadway/Gollob,E BROADWAY BLVD,N GOLLOB RD,-110.798065,32.220759,-214748363.0,1.0,85710
14555.0,BRHA(NW),Broadway/Harrison,E BROADWAY BLVD,N HARRISON RD,-110.790998,32.221036,-214748363.0,1.0,85710
16135.0,BRHA(SE),Broadway/Harrison,E BROADWAY BLVD,N HARRISON RD,-110.788898,32.220687,-214748363.0,1.0,85748
13427.0,BRHI(NE),Broadway/Highland,E BROADWAY BLVD,N HIGHLAND AVE,-110.950591,32.221454,-214748363.0,1.0,85719
13483.0,BRHI(SE),Broadway/Highland,E BROADWAY BLVD,S HIGHLAND AVE,-110.950649,32.221289,-214748363.0,1.0,85719
15993.0,BRHO(IN),Broadway/Houghton(IN),E BROADWAY BLVD,N HOUGHTON RD,-110.774585,32.221444,-214748363.0,1.0,85748
16270.0,BRHO(NW),Broadway/Houghton(NW),E BROADWAY BLVD,S HOUGHTON RD,-110.774208,32.220983,-214748363.0,1.0,85748
15027.0,BRHO(PR),Broadway/Houghton Park&Ride,N HOUGHTON RD,S HOUGHTON RD,-110.773392,32.222105,-214748363.0,1.0,85710
12347.0,BRIH(NE),Broadway/Indian House,E BROADWAY BLVD,N INDIAN HOUSE RD,-110.865508,32.221679,-214748363.0,1.0,85711
13417.0,BRIR(NW),Broadway/Irving,E BROADWAY BLVD,N IRVING AVE,-110.905526,32.221704,-214748363.0,1.0,85711
13493.0,BRIR(SW),Broadway/Irving,E BROADWAY BLVD,S IRVING AVE,-110.905615,32.221444,-214748363.0,1.0,85711
13392.0,BRJE(NW),Broadway/Jessica,E BROADWAY BLVD,N JESSICA AVE,-110.847606,32.221127,-214748363.0,1.0,85710
13527.0,BRJE(SE),Broadway/Jessica,E BROADWAY BLVD,N JESSICA AVE,-110.84708,32.220888,-214748363.0,1.0,85710
13390.0,BRKO(NW),Broadway/Kolb,E BROADWAY BL,N KOLB RD,-110.84147,32.221066,-214748363.0,1.0,85710
13530.0,BRKO(SE),Broadway/Kolb,E BROADWAY BLVD,N KOLB RD,-110.840524,32.220937,-214748363.0,1.0,85710
13528.0,BRLA(SE),Broadway/Langley,E BROADWAY BLVD,S KOLB RD,-110.843692,32.22085,-214748363.0,1.0,85710
16264.0,BRLD(NW),Broadway/Leland,E BROADWAY BLVD,N LELAND RD,-110.7768,32.220919,-214748363.0,1.0,85748
13408.0,BRLE(NW),Broadway/Leonora,E BROADWAY BLVD,N LEONORA AVE,-110.872394,32.221786,-214748364.0,1.0,85711
13502.0,BRLE(SE),Broadway/Leonora,E BROADWAY BLVD,N LEONORA AVE,-110.871631,32.221412,-214748363.0,1.0,85711
13526.0,BRMA(SE),Broadway/Mann,E BROADWAY BLVD,N JESSICA AVE,-110.849108,32.220873,-214748363.0,1.0,85710
13405.0,BRMC(WB),Broadway/McDonalds,E BROADWAY BLVD,N WILMOT RD,-110.86184,32.221641,-214748363.0,1.0,85711
13389.0,BRMO(NW),Broadway/Montego,E BROADWAY BLVD,N KOLB RD,-110.837706,32.221126,-214748363.0,1.0,85710
13531.0,BRMO(SE),Broadway/Montego,E BROADWAY BLVD,S MONTEGO DR,-110.836748,32.220878,-214748363.0,1.0,85710
13393.0,BRNA(NW),Broadway/Natachee,E BROADWAY BLVD,N AVE NATACHEE,-110.852104,32.221127,-214748363.0,1.0,85710
13498.0,BRNI(SE),Broadway/Niven,E BROADWAY BLVD,S NIVEN AVE,-110.886898,32.221506,-214748363.0,1.0,85711
13506.0,BROC(EB),Broadway/O'Reilly Chevrolet,E BROADWAY BLVD,E BROADWAY BLVD,-110.860576,32.221346,-214748363.0,1.0,85711
14545.0,BROS(SE),Broadway/Old Spanish Trail,E BROADWAY BLVD,E OLD SPANISH TRL,-110.811936,32.220865,-214748363.0,1.0,85710
14559.0,BROS*NE*,Broadway/Old Spanish Trail,E BROADWAY BLVD,E OLD SPANISH TRL,-110.811422,32.221022,-214748363.0,1.0,85710
13385.0,BRPA(NE),Broadway/Pantano(NE),E BROADWAY BLVD,N PANTANO RD,-110.822874,32.221032,-214748363.0,1.0,85710
13386.0,BRPA(NW),Broadway/Pantano(NW),E BROADWAY BLVD,N PANTANO RD,-110.824623,32.221048,-214748363.0,1.0,85710
14452.0,BRPA(SE),Broadway/Pantano,E BROADWAY BLVD,N PANTANO RD,-110.823303,32.220875,-214748363.0,1.0,85710
16364.0,BRPA(SW),Broadway/Park Av,E BROADWAY BL,N PARK AV,-110.956603,32.221232,-214748364.0,1.0,85719
13429.0,BRPK(NW),Broadway/Park Av,E BROADWAY BLVD,N PARK AVE,-110.957159,32.2215,-214748363.0,1.0,85719
13424.0,BRPL(NW),Broadway/Plumer,E BROADWAY BLVD,N PLUMER AVE,-110.939757,32.221548,-214748363.0,1.0,85719
13486.0,BRPL(SE),Broadway/Plumer,E BROADWAY BLVD,N PLUMER AVE,-110.939084,32.221366,-214748363.0,1.0,85719
13505.0,BRPP(SE),Broadway/Park Place,E BROADWAY BL,N INDIAN HOUSE RD,-110.86518,32.221428,-214748363.0,1.0,85711
13388.0,BRPR(NW),Broadway/Prudence,E BROADWAY BLVD,N PRUDENCE RD,-110.832821,32.221142,-214748363.0,1.0,85710
13532.0,BRPR(SE),Broadway/Prudence,E BROADWAY BLVD,S PRUDENCE RD,-110.831865,32.220812,-214748363.0,1.0,85710
89.0,BRRA(NW),Broadway/Randolph Way,E BROADWAY BLVD,S RANDOLPH WAY,-110.91861,32.221737,-214748363.0,1.0,85716
78.0,BRRA(SE),Broadway/Randolph Way,E BROADWAY BLVD,S RANDOLPH WAY,-110.917685,32.221466,-214748363.0,1.0,85716
13533.0,BRRO(EB),Broadway/River Oaks Apts, , ,-110.827358,32.220837,-1.0,1.0,85710
13411.0,BRRO(NW),Broadway/Rosemont,E BROADWAY BLVD,N ROSEMONT BLVD,-110.88422,32.221831,-214748363.0,1.0,85711
13499.0,BRRO(SE),Broadway/Rosemont,E BROADWAY BLVD,N ROSEMONT BLVD,-110.883275,32.221483,-214748363.0,1.0,85711
13387.0,BRRO(WB),Broadway/River Oaks Apts,E BROADWAY BLVD, ,-110.827576,32.221126,-1.0,1.0,85710
14936.0,BRRY(NE),Broadway/Rayburn,E BROADWAY BLVD,N RAYBURN PL,-110.802934,32.220934,-214748363.0,1.0,85710
14937.0,BRRY*SE*,Broadway/Rayburn,E BROADWAY BLVD,N RAYBURN PL,-110.802947,32.220772,-214748363.0,1.0,85710
12343.0,BRSA(NW),Broadway/Sarnoff,E BROADWAY BLVD,N SARNOFF DR,-110.815922,32.221161,-214748364.0,1.0,85710
14544.0,BRSA(SW),Broadway/Sarnoff,E BROADWAY BLVD,N SARNOFF DR,-110.817013,32.220806,-214748363.0,1.0,85710
16265.0,BRSB(NW),Broadway/Shadow Brook,E BROADWAY BLVD,S SHADOW CREEK PL,-110.781044,32.220916,-214748363.0,1.0,85748
16269.0,BRSH(SW),Broadway/Sonoran Heights,E BROADWAY BLVD,N HOUGHTON RD,-110.776151,32.220769,-214748363.0,1.0,85748
16177.0,BRST(SE),SL/Broadway/Stone,E BROADWAY BLVD,S SCOTT AVE,-110.970796,32.220952,-214748363.0,1.0,85701
308.0,BRSW(NW),Broadway/Swan,E BROADWAY BLVD,N SWAN RD,-110.89269,32.22168,-214748363.0,1.0,85711
307.0,BRSW(SE),Broadway/Swan,E BROADWAY BLVD,S SWAN RD,-110.891927,32.221392,-214748363.0,1.0,85711
13422.0,BRTR(NE),Broadway/Treat,E BROADWAY BLVD,N TREAT AVE,-110.931431,32.221633,-214748363.0,1.0,85716
13488.0,BRTR(SE),Broadway/Treat,E BROADWAY BLVD,S TREAT AVE,-110.930524,32.221375,-214748363.0,1.0,85716
13423.0,BRTU(NW),Broadway/Tucson,E BROADWAY BLVD,N TUCSON BLVD,-110.935512,32.221617,-214748363.0,1.0,85719
13487.0,BRTU(SE),Broadway/Tucson,E BROADWAY BLVD,N TUCSON BLVD,-110.934766,32.221397,-214748363.0,1.0,85716
16266.0,BRVO(NW),Broadway/Vozack,E BROADWAY BLVD,S VOZACK LN,-110.785597,32.220907,-214748363.0,1.0,85748
16267.0,BRVO(SE),Broadway/Vozack,E BROADWAY BLVD,N STONER AVE,-110.785194,32.22075,-214748363.0,1.0,85748
86.0,BRWI(NW),Broadway/Wilmot,E BROADWAY BLVD,N WILMOT RD,-110.858607,32.221472,-214748364.0,1.0,85711
13525.0,BRWI(SE),Broadway/Wilmot,E BROADWAY BLVD,S WILMOT RD,-110.857494,32.221117,-214748363.0,1.0,85710
13500.0,BRWM(SE),Broadway/Williams,E BROADWAY BLVD,S WILLIAMS BLVD,-110.879031,32.221451,-214748363.0,1.0,85711
119.0,BUGA(SE),Butterfield Dr/Gas Rd,S BUTTERFIELD DR,E GAS RD,-110.915749,32.165981,-214748363.0,1.0,85714
126.0,BUGA(SW),Butterfield Dr/Gas Rd,S BUTTERFIELD DR,E GAS RD,-110.916004,32.166386,-214748363.0,1.0,85714
18.0,BUMC(IN),BUMC/South Campus,BANNER-UMC SOUTH CAMPUS, ,-110.93048,32.176908,-214748364.0,1.0,85713
16344.0,CA31(NE),Campbell Av/31st St,S MARTIN AV,E 31ST ST,-110.943356,32.197766,-214748364.0,1.0,85713
16345.0,CA31(SW),Campbell Av/31st St,S MARTIN AV,E 31ST ST,-110.943871,32.197153,-214748364.0,1.0,85713
16343.0,CA36(NE),Campbell Av/36th St,S CAMPBELL AV,S FORGEUS AV,-110.943423,32.193023,-214748364.0,1.0,85713
11880.0,CA6S(NE),Campbell Av/6th St,N CAMPBELL AVE,E 6TH ST,-110.943796,32.228176,-214748363.0,1.0,85719
11925.0,CA6S(SW),Campbell Av/6th St,N CAMPBELL AVE,E 7TH ST,-110.944016,32.2275,-214748363.0,1.0,85719
11879.0,CA8S(NE),Campbell Av/8th St,N CAMPBELL AVE,E 8TH ST,-110.943786,32.22543,-214748363.0,1.0,85719
11926.0,CA9S(NW),Campbell Av/9th St,N CAMPBELL AVE,E 7TH ST,-110.944004,32.224396,-214748363.0,1.0,85719
11882.0,CAAD(NE),Campbell Av/Adams,N CAMPBELL AVE,E SPEEDWAY BLVD,-110.943901,32.240927,-214748363.0,1.0,85719
220.0,CAAD(NW),Campbell Av/Adams,N CAMPBELL AVE,E GREENLEE RD,-110.944095,32.240794,-214748363.0,1.0,85724
11891.0,CAAL(NE),Campbell Av/Allen,N CAMPBELL AVE,E ALLEN RD,-110.9437,32.276224,-214748363.0,1.0,85719
11333.0,CAAL(SW),Campbell Av/Allen,N CAMPBELL AVE,E ALLEN RD,-110.943951,32.275661,-214748363.0,1.0,85719
16051.0,CAAV(NE),Cardinal/Alvaro,S CARDINAL AVE,W DOVE RD,-111.028651,32.145058,-214748363.0,1.0,85746
16052.0,CAAV(SW),Cardinal/Alvaro,S CARDINAL AVE,W ALVARO RD,-111.028712,32.144367,-214748363.0,1.0,85746
12702.0,CABA(NE),Campbell Av/Bantam,S CAMPBELL AV,E BANTAM RD,-110.943338,32.156051,-214748363.0,1.0,85706
12642.0,CABA(SW),Campbell Av/Bantam,S CAMPBELL AV,E BANTAM RD,-110.943492,32.155667,-214748363.0,1.0,85706
10919.0,CABC(NE),Campbell Av/Barleycorn,S CAMPBELL AV,E BARLEYCORN LN,-110.943395,32.1999,-214748363.0,1.0,85713
10868.0,CABC(SW),Campbell Av/Barleycorn,S CAMPBELL AV,E BARLEYCORN LN,-110.943895,32.199308,-214748363.0,1.0,85713
12385.0,CABI(SE),Campbell Av/Bilby,S CAMPBELL AVE,E BILBY RD,-110.943333,32.139979,-214748364.0,1.0,85706
12371.0,CABI(SW),Campbell Av/Bilby,S CAMPBELL AVE,E BILBY RD,-110.943585,32.139907,-214748364.0,1.0,85706
11888.0,CABL(NE),Campbell Av/Blacklidge,N CAMPBELL AV,E BLACKLIDGE DR,-110.943688,32.261483,-214748363.0,1.0,85719
11916.0,CABL(SW),Campbell Av/Blacklidge,N CAMPBELL AV,E BLACKLIDGE DR,-110.943876,32.260973,-214748363.0,1.0,85719
144.0,CABR(NE),Campbell Av/Broadway,N CAMPBELL AVE,E 14TH ST,-110.943863,32.221627,-214748363.0,1.0,85719
16049.0,CABY(NE),Cardinal/Bilby,S CARDINAL AVE,W QUAIL RD,-111.028637,32.14145,-214748363.0,1.0,85746
16050.0,CABY(SW),Cardinal/Bilby,S CARDINAL AVE,W BILBY RD,-111.028633,32.140849,-214748363.0,1.0,85746
11103.0,CACE(SW),Cardinal/Century Dr,S CARDINAL AVE,W CENTURY DR,-111.028773,32.135717,-214748363.0,1.0,85746
13996.0,CACH(SW),Cardinal/Christopher Dr,S CARDINAL AVE,W CHRISTOPHER DR,-111.029046,32.124141,-214748363.0,1.0,85746
11886.0,CACO(NE),Campbell Av/Copper,N CAMPBELL AVE,E COPPER ST,-110.943838,32.254255,-214748363.0,1.0,85719
11919.0,CACO(SW),Campbell Av/Copper,N CAMPBELL AVE,E COPPER ST,-110.944022,32.253868,-214748363.0,1.0,85719
10911.0,CACV(NE),Campbell Av/Cochise Vista,S CAMPBELL AVE,E PINAL VISTA,-110.94344,32.187787,-214748363.0,1.0,85713
16383.0,CADN(SE),SS/Camino de Oeste/Paseo Don Rolando SE, , ,-111.062699,32.166452,-214748364.0,1.0,85746
12699.0,CADR(NE),Campbell Av/Drexel,S CAMPBELL AVE,E VIRGINIA ST,-110.943401,32.149022,-214748363.0,1.0,85706
12547.0,CADR(SW),Cardinal/Drexel,S CARDINAL AVE,W DREXEL RD,-111.028789,32.147824,-214748363.0,1.0,85746
10910.0,CADV(NE),Campbell Av/Duvall Vista,S CAMPBELL AVE,S CAPRI CIR,-110.943479,32.185488,-214748363.0,1.0,85713
16120.0,CAFL(NE),Campbell Av/Ft Lowell,N CAMPBELL AVE,E FORT LOWELL RD,-110.9437,32.265131,-214748363.0,1.0,85719
11915.0,CAFL(SW),Campbell Av/Ft Lowell,N CAMPBELL AV,E FORT LOWELL RD,-110.943853,32.264705,-214748363.0,1.0,85719
11887.0,CAGL(NE),Campbell Av/Glenn,N CAMPBELL AV,E GLENN ST,-110.943702,32.258567,-214748363.0,1.0,85719
11918.0,CAGL(SW),Campbell Av/Glenn,N CAMPBELL AVE,E GLENN ST,-110.944007,32.257278,-214748363.0,1.0,85719
14031.0,CAGR(NE),Campbell Av/Grant@Water,N CAMPBELL AVE,E WATER ST,-110.943865,32.25164,-214748363.0,1.0,85719
106.0,CAGR(SW),Campbell Av/Grant@Edison,N CAMPBELL AVE,E EDISON ST,-110.944263,32.249054,-214748363.0,1.0,85719
12644.0,CAHO(NE),Campbell Av/Holladay,S CAMPBELL AVE,E MINORKA RD,-110.943362,32.151481,-214748363.0,1.0,85706
12700.0,CAHO(SW),Campbell Av/Holladay,S CAMPBELL AVE,E HOLLADAY ST,-110.94353,32.151273,-214748363.0,1.0,85706
12704.0,CAIR(SE),Campbell Av/Irvington,S CAMPBELL AVE,UNNAMED,-110.943277,32.160752,-214748364.0,1.0,85706
14324.0,CAIR(SW),Campbell Av/Irvington,S CAMPBELL AV,E IRVINGTON RD,-110.943472,32.162774,-214748363.0,1.0,85714
11890.0,CAKL(NE),Campbell Av/Kleindale,N CAMPBELL AVE,N RICHLAND DR,-110.943698,32.268917,-214748363.0,1.0,85719
11914.0,CAKL(SW),Campbell Av/Kleindale,N CAMPBELL AVE,E KLEINDALE RD,-110.943862,32.268359,-214748363.0,1.0,85719
11883.0,CALE(NE),Campbell Av/Lester,N CAMPBELL AVE,E 8TH ST,-110.943983,32.243951,-214748363.0,1.0,85719
11096.0,CALR(NE),Cardinal/Los Reales,S CARDINAL AV,W LOS REALES RD,-111.028858,32.119748,-214748363.0,1.0,85746
16087.0,CAMI(NE),SS/Campus Dr/Mission Rd,W CAMPUS DR,S MISSION RD,-111.021626,32.091546,-214748364.0,1.0,85746
12701.0,CAOR(SE),Campbell Av/Oregon,S CAMPBELL AVE,E CANADA ST,-110.94338,32.153554,-214748363.0,1.0,85706
12643.0,CAOR(SW),Campbell Av/Oregon,S CAMPBELL AVE,E OREGON ST,-110.943518,32.153492,-214748363.0,1.0,85706
16048.0,CAPA(NE),Cardinal/San Paulus,S CARDINAL AVE,W CMO ORO BLANCO,-111.028611,32.137869,-214748363.0,1.0,85746
11098.0,CAPA(SE),Cardinal/Pajarito,S CARDINAL AVE,W C PAJARITO,-111.028904,32.127804,-214748363.0,1.0,85746
15005.0,CAPA(SW),Cardinal/Pajarito,S CARDINAL AVE,W C PAJARITO,-111.02903,32.127696,-214748363.0,1.0,85746
11099.0,CAPI(NE),Cardinal/Pincushion,S CARDINAL AVE,W PINCUSHION LN,-111.0288,32.131237,-214748363.0,1.0,85746
148.0,CAPR(NE),Campbell Av/Prince,N CAMPBELL AV,E PRINCE RD,-110.943717,32.272572,-214748363.0,1.0,85719
16171.0,CAPR(SW),Campbell Av/Prince,N CAMPBELL AVE,E GREENLEE RD,-110.943952,32.271755,-214748363.0,1.0,85719
11332.0,CARI(SW),Campbell Av/River,N CAMPBELL AVE,E RIVER RD,-110.943934,32.285978,-214748363.0,1.0,85718
11912.0,CARO(SW),Campbell Av/Roger,N CAMPBELL AVE,E ROGER RD,-110.94395,32.27898,-214748363.0,1.0,85719
11884.0,CASE(SE),Campbell Av/Seneca,N CAMPBELL AVE,E SENECA ST,-110.943945,32.246906,-214748363.0,1.0,85719
11881.0,CASP(NE),Campbell Av/Speedway,N CAMPBELL AVE,E SPEEDWAY BLVD,-110.943855,32.236736,-214748363.0,1.0,85719
11924.0,CASP(SW),Campbell Av/Speedway,N CAMPBELL AVE,E SPEEDWAY BLVD,-110.944114,32.235706,-214748363.0,1.0,85719
11097.0,CATI(NE),Cardinal/Tigre,S CARDINAL AVE,W C DEL TIGRE,-111.028958,32.124484,-214748363.0,1.0,85746
92.0,CATV(NW),Catalina Hy/Tanque Verde,E CATALINA HWY,E TANQUE VERDE RD,-110.798893,32.259294,-214748363.0,1.0,85749
16047.0,CAVA(NE),Cardinal/Valencia,S CARDINAL AVE,W VALENCIA RD,-111.028645,32.134867,-214748364.0,1.0,85746
231.0,CAVA(SW),Cardinal/Valencia,S CARDINAL AVE,W BARREL DR,-111.028964,32.132295,-214748364.0,1.0,85746
14994.0,CAVL(NE),Campbell Av/Valencia,S CAMPBELL AVE,E VALENCIA RD,-110.943354,32.134608,-214748363.0,1.0,85706
11921.0,CAWA(NW),Campbell Av/Waverly,N CAMPBELL AVE,E WAVERLY ST,-110.944221,32.245871,-214748363.0,1.0,85719
12641.0,CAWY(SW),Campbell Av/Wyoming,S CAMPBELL AVE,E WYOMING ST,-110.943556,32.159214,-214748363.0,1.0,85706
11256.0,CC17(NE),Country Club/17th St,S COUNTRY CLUB RD,E CMO CAMPESTRE,-110.926551,32.213599,-214748363.0,1.0,85716
143.0,CC22(NE),Country Club/22nd St,S COUNTRY CLUB RD,E 21ST ST,-110.926493,32.208114,-214748363.0,1.0,85716
11252.0,CC23(SE),Country Club/23rd St,S COUNTRY CLUB RD,E 23RD ST,-110.926675,32.205914,-214748363.0,1.0,85713
13965.0,CC23(SW),Country Club/23rd St,S COUNTRY CLUB RD,E 23RD ST,-110.926809,32.206023,-214748363.0,1.0,85713
11251.0,CC27(NE),Country Club/27th St,S COUNTRY CLUB RD,E 27TH ST,-110.926589,32.203006,-214748363.0,1.0,85713
13966.0,CC27(SW),Country Club/27th St,S COUNTRY CLUB RD,E 27TH ST,-110.926717,32.20255,-214748363.0,1.0,85713
13967.0,CC30(NW),Country Club/30th St,S COUNTRY CLUB RD,E 30TH ST,-110.926706,32.20045,-214748363.0,1.0,85713
13869.0,CC3S(NE),Country Club/3rd St,N COUNTRY CLUB RD,E 3RD ST,-110.92663,32.232214,-214748363.0,1.0,85716
13955.0,CC3S(NW),Country Club/3rd St,N COUNTRY CLUB RD,E 3RD ST,-110.926836,32.231939,-214748363.0,1.0,85716
14954.0,CC44(NE),Country Club/44th St,S COUNTRY CLUB RD,E 44TH ST,-110.926347,32.184897,-214748364.0,1.0,85713
14958.0,CC44(NW),Country Club/44th St,S COUNTRY CLUB RD,E 44TH ST,-110.926511,32.184592,-214748364.0,1.0,85713
14953.0,CC46(NE),Country Club/46th St,S COUNTRY CLUB RD,E 46TH ST,-110.926322,32.181832,-214748364.0,1.0,85713
14959.0,CC46(NW),Country Club/46th St,S COUNTRY CLUB RD,E 46TH ST,-110.926492,32.181559,-214748364.0,1.0,85713
13868.0,CC5S(NE),Country Club/5th St,N COUNTRY CLUB RD,E 5TH ST,-110.926624,32.229196,-214748363.0,1.0,85716
13956.0,CC5S(SW),Country Club/5th St,N COUNTRY CLUB RD,E 6TH ST,-110.926785,32.228251,-214748363.0,1.0,85716
11843.0,CC8S(NE),Country Club/8th St,N COUNTRY CLUB RD,E 8TH ST,-110.92662,32.225417,-214748363.0,1.0,85716
11743.0,CC8S(SW),Country Club/8th St,N COUNTRY CLUB RD,E 8TH ST,-110.926808,32.22509,-214748363.0,1.0,85716
11257.0,CCAC(NE),Country Club/Arroyo Chico,S COUNTRY CLUB RD,E ARROYO CHICO,-110.92655,32.216847,-214748363.0,1.0,85716
11747.0,CCAC(NW),Country Club/Arroyo Chico,S COUNTRY CLUB,E ARROYO CHICO,-110.926746,32.216434,-214748363.0,1.0,85716
13871.0,CCAD(SE),Country Club/Adams,N COUNTRY CLUB RD,E ADAMS ST,-110.926712,32.240516,-214748363.0,1.0,85716
10895.0,CCAJ(NE),Country Club/Ajo,S COUNTRY CLUB RD,E AJO WAY,-110.92627,32.178506,-214748364.0,1.0,85713
10893.0,CCAJ(SW),Country Club/Ajo,S COUNTRY CLUB RD,E AJO WAY,-110.926531,32.177423,-214748364.0,1.0,85713
16251.0,CCBA(NE),Country Club/Bantam Rd,S COUNTRY CLUB RD,E BANTAM RD,-110.926226,32.156253,-214748363.0,1.0,85706
16252.0,CCBA(SW),Country Club/Bantam Rd,S COUNTRY CLUB RD,E BANTAM RD,-110.92641,32.155976,-214748363.0,1.0,85706
16249.0,CCBE(NE),Country Club/Behan St,S COUNTRY CLUB RD,E BEHAN ST,-110.926196,32.152565,-214748363.0,1.0,85706
16250.0,CCBE(SW),Country Club/Behan St,S COUNTRY CLUB RD,E BEHAN ST,-110.92638,32.152288,-214748363.0,1.0,85706
13876.0,CCBL(NE),Country Club/Blacklidge,N COUNTRY CLUB RD,E BLACKLIDGE DR,-110.926692,32.261589,-214748363.0,1.0,85716
13948.0,CCBL(SW),Country Club/Blacklidge,N COUNTRY CLUB RD,E BLACKLIDGE DR,-110.926935,32.261048,-214748363.0,1.0,85716
170.0,CCBR(NE),Country Club/Broadway,N COUNTRY CLUB RD,E BROADWAY BLVD,-110.926487,32.221776,-214748363.0,1.0,85716
179.0,CCBR(SW),Country Club/Broadway,S COUNTRY CLUB RD,E BROADWAY BLVD,-110.926705,32.221228,-214748363.0,1.0,85716
16253.0,CCDR(NE),Country Club/Drexel,S COUNTRY CLUB RD,E HOLLADAY ST,-110.926195,32.149083,-214748363.0,1.0,85706
13953.0,CCDR(SW),Country Club/Drachman,N COUNTRY CLUB RD,E DRACHMAN ST,-110.926876,32.239444,-214748364.0,1.0,85716
11255.0,CCEA(NE),Country Club/Eastland,S COUNTRY CLUB RD,E EASTLAND ST,-110.926519,32.211869,-214748363.0,1.0,85716
11749.0,CCEA(SW),Country Club/Eastland,S COUNTRY CLUB RD,E 19TH ST,-110.926768,32.2112,-214748363.0,1.0,85716
13952.0,CCEL(SW),Country Club/Elm,N COUNTRY CLUB RD,E ELM ST,-110.926882,32.242869,-214748364.0,1.0,85716
10899.0,CCFB(NE),Country Club/Food Bank,S COUNTRY CLUB RD,E RICKEY VISTA,-110.926377,32.188865,-214748364.0,1.0,85713
13874.0,CCFL(SE),Country Club/Flower,N COUNTRY CLUB RD,E FLOWER ST,-110.926725,32.253747,-214748363.0,1.0,85716
13950.0,CCFL(SW),Country Club/Flower,N COUNTRY CLUB RD,E FLOWER ST,-110.926943,32.253726,-214748363.0,1.0,85716
13877.0,CCFT(NE),Country Club/Ft Lowell,N COUNTRY CLUB RD,E FORT LOWELL RD,-110.926696,32.265337,-214748363.0,1.0,85716
13947.0,CCFT(SW),Country Club/Ft Lowell,N COUNTRY CLUB RD,E FORT LOWELL RD,-110.926902,32.26432,-214748363.0,1.0,85716
13875.0,CCGL(NE),Country Club/Glenn,N COUNTRY CLUB RD,E GLENN ST,-110.926719,32.25833,-214748363.0,1.0,85716
13949.0,CCGL(SW),Country Club/Glenn,N COUNTRY CLUB RD,E GLENN ST,-110.926991,32.25731,-214748363.0,1.0,85716
171.0,CCGR(NE),Country Club/Grant,N COUNTRY CLUB RD,E GRANT RD,-110.926742,32.251115,-214748363.0,1.0,85716
178.0,CCGR(NW),Country Club/Grant,N COUNTRY CLUB RD,E GRANT RD,-110.92697,32.250593,-214748363.0,1.0,85716
14530.0,CCIR(NE),Country Club/Irvington,S COUNTRY CLUB RD,E MISSOURI ST,-110.926182,32.163651,-214748364.0,1.0,85714
13878.0,CCKL(NE),Country Club/Kleindale,N COUNTRY CLUB RD,E KLEINDALE RD,-110.926704,32.269096,-214748363.0,1.0,85716
13946.0,CCKL(SW),Country Club/Kleindale,N COUNTRY CLUB RD,E KLEINDALE RD,-110.926832,32.268475,-214748363.0,1.0,85716
14955.0,CCKV(NE),Country Club/Kaibab Vista,S COUNTRY CLUB RD,E COCONINO VISTA,-110.926363,32.187208,-214748364.0,1.0,85713
14957.0,CCKV(NW),Country Club/Kaibab Vista,S COUNTRY CLUB RD,E COCONINO VISTA,-110.926542,32.187138,-214748364.0,1.0,85713
15009.0,CCMI(SE),Country Club/Michigan,S COUNTRY CLUB RD,E MICHIGAN ST,-110.926261,32.170049,-214748364.0,1.0,85714
12654.0,CCMI(SW),Country Club/Missouri,S COUNTRY CLUB RD,E IRVINGTON RD,-110.926435,32.166332,-214748363.0,1.0,85714
12689.0,CCMI*NE*,Country Club/Missouri,S COUNTRY CLUB RD,E MISSOURI ST,-110.926246,32.166874,-214748364.0,1.0,85714
14696.0,CCPE(NW),Country Club/Pennsylvania,S COUNTRY CLUB RD,E PENNSYLVANIA ST,-110.926475,32.171777,-214748364.0,1.0,85714
13872.0,CCPI(NE),Country Club/Pima,N COUNTRY CLUB RD,E PIMA ST,-110.926725,32.243516,-214748363.0,1.0,85716
14415.0,CCRV(SW),Country Club/Rickey Vista,S COUNTRY CLUB RD,E RICKEY VISTA,-110.926566,32.18895,-214748363.0,1.0,85713
13873.0,CCSE(NE),Country Club/Seneca,N COUNTRY CLUB RD,E SENECA ST,-110.926757,32.247436,-214748363.0,1.0,85716
13951.0,CCSE(SW),Country Club/Seneca,N COUNTRY CLUB RD,E SENECA ST,-110.926897,32.246641,-214748363.0,1.0,85716
11250.0,CCSI(NE),Country Club/Silverlake,S COUNTRY CLUB RD,E SILVERLAKE RD,-110.92661,32.199908,-214748363.0,1.0,85713
13870.0,CCSP(NE),Country Club/Speedway,N COUNTRY CLUB RD,E SPEEDWAY BL,-110.926677,32.236343,-214748363.0,1.0,85716
13954.0,CCSP(SW),Country Club/Speedway,N COUNTRY CLUB RD,E SPEEDWAY BLVD,-110.926959,32.235543,-214748363.0,1.0,85716
16043.0,CCWI(SW),Country Club/Winsett,S COUNTRY CLUB RD,E 17TH ST,-110.926734,32.21401,-214748363.0,1.0,85716
16.0,CH22(SW),Cherrybell/22nd St,S CHERRYBELL STRAV,E 22ND ST,-110.947935,32.205836,-214748364.0,1.0,85713
14796.0,CHOC(NW),Church/Ochoa,S CHURCH AVE,W OCHOA ST,-110.972603,32.219827,-214748363.0,1.0,85701
14797.0,CHOC(SE),Church/Ochoa,S CHURCH AVE,W OCHOA ST,-110.972323,32.219322,-214748363.0,1.0,85701
10859.0,CHPE(NW),Church/Pennington,N CHURCH AVE,W PENNINGTON ST,-110.972711,32.222785,-214748363.0,1.0,85701
14327.0,CHSI(NW),Cherrybell/Silverlake,S CHERRYBELL SV,E 12TH ST,-110.944337,32.201338,-214748363.0,1.0,85713
14607.0,CLLA(NW),Camp Lowell/Laurel,E FORT LOWELL RD,N LAUREL AVE,-110.897742,32.265188,-214748364.0,1.0,85712
14610.0,CLLA(SE),Camp Lowell/Laurel,E CAMP LOWELL DR,N LAUREL AVE,-110.896262,32.265002,-214748363.0,1.0,85712
14605.0,CLSW(NW),Camp Lowell/Swan,E CAMP LOWELL DR,E SPEEDWAY BLVD,-110.893766,32.265321,-214748363.0,1.0,85712
16180.0,CO4A(SE),SL/Congress/4th Av,N TOOLE AVE,E CONGRESS ST,-110.965539,32.221755,-214748363.0,1.0,85705
14516.0,CO6A(SE),SL/Congress/6th Av,E CONGRESS ST,N 6TH AVE,-110.968364,32.221964,-214748363.0,1.0,85701
15014.0,COAP(IN),SS/Wal Mart/Arizona Pavilions,W ARIZONA PAVILLIONS DR,N ARIZONA PAVILLIONS DR,-111.089281,32.355451,-214748363.0,1.0,85743
16292.0,COAV(NW),Corona/Alvernon,E CORONA RD,S PALO VERDE RD,-110.911605,32.123458,-214748363.0,1.0,85756
12467.0,COBO(NW),Congress/Bonita,W CONGRESS ST,N BONITA AVE,-110.983664,32.220587,-214748363.0,1.0,85745
14900.0,COCE(SE),Congress/Central,W CONGRESS ST,W RIVERVIEW ST,-110.978499,32.220939,-214748363.0,1.0,85701
11526.0,COCH(NW),Congress/Church,W CONGRESS ST,N 6TH AVE,-110.973142,32.221787,-214748363.0,1.0,85701
16263.0,COCH(SW),SL/Congress/Church,W CONGRESS ST,N 6TH AVE,-110.972673,32.221685,-214748363.0,1.0,85701
16173.0,COCN(SE),SL/Av del Convento/Congress St,S AVE DEL CONVENTO,W CONGRESS ST,-110.985287,32.220037,-214748363.0,1.0,85745
12466.0,COCO(NW),Congress/Av del Convento,W CONGRESS ST,N MELWOOD AVE,-110.986115,32.220358,-214748363.0,1.0,85745
11727.0,COCO(SE),Congress/Av del Convento,W CONGRESS ST,N LINDA AVE,-110.984356,32.220323,-214748363.0,1.0,85745
16355.0,COEC(SE),SS/Cocio Rd/El Cerrito Ln, , ,-111.344848,32.462227,-214748364.0,1.0,85653
16070.0,COEC(SW),SS/Cocio Rd/El Cerrito Ln,N COCIO RD,W EL CERRITO LN,-111.344849,32.462236,-214748364.0,1.0,85653
16176.0,COGN(CR),SL/Congress/Granada AvCR,W CONGRESS ST,N GRANADA AVE,-110.975768,32.221404,-214748363.0,1.0,85701
11464.0,COGN(NW),Congress/Granada(NW),W CONGRESS ST,N GRANADA AVE,-110.976684,32.221431,-214748364.0,1.0,85701
11455.0,COGN(SW),Congress/Granada(SW),W CONGRESS ST,N GRANADA AVE,-110.977093,32.221092,-214748363.0,1.0,85701
132.0,COGR(NW),Congress/Grande,W CONGRESS ST,N GRANDE AVE,-110.988946,32.22012,-214748363.0,1.0,85745
14197.0,COGR(SE),Congress/Grande,W CONGRESS ST,S GRANDE AVE,-110.987628,32.220045,-214748363.0,1.0,85745
12473.0,COIN(NW),Congress/I-10,W CONGRESS ST,N FREEWAY,-110.981172,32.220875,-214748363.0,1.0,85745
16349.0,COPV(NE),Corona/Palo Verde,E CORONA RD,S ALVERNON WY,-110.917453,32.123343,-214748364.0,1.0,85756
16178.0,COST(SE),SL/Congress/Stone,E CONGRESS ST,N SCOTT AVE,-110.970934,32.221958,-214748363.0,1.0,85701
11725.0,COWE(SE),Congress/Westmoreland,W CONGRESS ST,S WESTMORELAND AV,-110.991764,32.219666,-214748363.0,1.0,85745
209.0,CR10(NW),Craycroft/I-10 TTT,S CRAYCROFT RD,E REX STRA,-110.875169,32.126855,-214748363.0,1.0,85756
12828.0,CR16(SW),Craycroft/16th St,S CRAYCROFT RD,E 16TH ST,-110.875279,32.213938,-214748363.0,1.0,85711
12852.0,CR20(NE),Craycroft/20th St,S CRAYCROFT RD,E 20TH ST,-110.874994,32.21003,-214748363.0,1.0,85711
15926.0,CR20(SW),Craycroft/20th St,S CRAYCROFT RD,E 19TH ST,-110.875255,32.209749,-214748363.0,1.0,85711
12851.0,CR22(NE),Craycroft/22nd St,S CRAYCROFT RD,E BEVERLY ST,-110.874961,32.207261,-214748363.0,1.0,85711
12831.0,CR22(SW),Craycroft/22nd St,S CRAYCROFT RD,E 22ND ST,-110.875204,32.206371,-214748363.0,1.0,85711
12849.0,CR25(NE),Craycroft/25th St,S CRAYCROFT RD,E 25TH ST,-110.874998,32.203871,-214748363.0,1.0,85711
12832.0,CR26(SW),Craycroft/26th St,S CRAYCROFT RD,E 26TH ST,-110.875186,32.20224,-214748363.0,1.0,85711
134.0,CR29(NE),Craycroft/29th St(NE),S CRAYCROFT RD,E 29TH ST,-110.874948,32.200327,-214748363.0,1.0,85711
255.0,CR29(SW),Craycroft/29th St(SW),S CRAYCROFT RD,E 29TH ST,-110.875238,32.198955,-214748363.0,1.0,85711
12848.0,CR32(NE),Craycroft/32nd St(NE),S CRAYCROFT RD,E 32ND ST,-110.874958,32.196844,-214748363.0,1.0,85711
12834.0,CR32*SW*,Craycroft/32nd St(SW),S CRAYCROFT RD,E 32ND ST,-110.875213,32.195958,-214748363.0,1.0,85711
14873.0,CR3S(NW),Craycroft/3rd St,N CRAYCROFT RD,E 3RD ST,-110.875563,32.231741,-214748363.0,1.0,85711
12861.0,CR5S(NE),Craycroft/5th St,N CRAYCROFT RD,E 5TH ST,-110.87535,32.229218,-214748363.0,1.0,85711
12822.0,CR5S(SW),Craycroft/5th St,N CRAYCROFT RD,E 5TH ST,-110.875643,32.228586,-214748363.0,1.0,85711
12823.0,CR8S(SW),Craycroft/8th St,N CRAYCROFT RD,E 8TH ST,-110.875427,32.22538,-214748363.0,1.0,85711
14307.0,CRBR(NE),Craycroft/Broadway,N CRAYCROFT RD,E BROADWAY BLVD,-110.875032,32.221908,-214748363.0,1.0,85711
261.0,CRBR(SW),Craycroft/Broadway,S CRAYCROFT RD,E BROADWAY BLVD,-110.875315,32.221279,-214748363.0,1.0,85711
14310.0,CRBU(NE),Craycroft/Burns,N CRAYCROFT DR,E BURNS ST,-110.875211,32.225,-214748363.0,1.0,85711
14311.0,CRCO(NE),Craycroft/Copper,N CRAYCROFT RD,E COPPER ST,-110.875156,32.254667,-214748363.0,1.0,85712
14837.0,CRDM(VC),Craycroft/AF Base Gate,N DAVIS MONTHAN DR,S CRAYCROFT RD,-110.875407,32.191065,-214748363.0,1.0,85708
12672.0,CRDR(NW),Craycroft/Dream,S CRAYCROFT RD,E LITTLETOWN RD,-110.874976,32.130976,-214748363.0,1.0,85756
12866.0,CRFA(NE),Craycroft/Fairmount,N CRAYCROFT RD,E FAIRMOUNT ST,-110.875375,32.240022,-214748363.0,1.0,85712
14944.0,CRFA(SW),Craycroft/Fairmount,N CRAYCROFT RD,E FAIRMOUNT ST,-110.875593,32.239602,-214748363.0,1.0,85712
12847.0,CRGL(NE),Craycroft/Golf Links,S CRAYCROFT RD,E GOLF LINKS RD,-110.875002,32.192959,-214748363.0,1.0,85711
12811.0,CRGN(SW),Craycroft/Glenn,N CRAYCROFT RD,E GLENN ST,-110.875348,32.257641,-214748363.0,1.0,85712
257.0,CRGR(NE),Craycroft/Grant,N CRAYCROFT RD,E GRANT RD,-110.875251,32.251393,-214748363.0,1.0,85712
12813.0,CRGR(SW),Craycroft/Grant,N CRAYCROFT RD,E GRANT RD,-110.875454,32.250039,-214748363.0,1.0,85712
12860.0,CRHO*NE*,Craycroft/Holmes,N CRAYCROFT RD,HOLMES,-110.875287,32.227523,-214748363.0,1.0,85711
12850.0,CRJU(NE),Craycroft/Juarez,S CRAYCROFT RD,E JUAREZ ST,-110.874989,32.205658,-214748363.0,1.0,85711
12867.0,CRLE(NE),Craycroft/Lee,N CRAYCROFT RD,E LEE ST,-110.875387,32.241862,-214748363.0,1.0,85712
12868.0,CRPI(NE),Craycroft/Pima,N CRAYCROFT RD,E PIMA ST,-110.875441,32.243836,-214748363.0,1.0,85712
12816.0,CRPI(SW),Craycroft/Pima,N CRAYCROFT RD,E PIMA ST,-110.875631,32.243154,-214748363.0,1.0,85712
12862.0,CRRO(NE),Craycroft/Rosewood,N CRAYCROFT RD,E ROSEWOOD ST,-110.8754,32.23292,-214748363.0,1.0,85711
12812.0,CRSI(SW),Craycroft/Silver,N CRAYCROFT RD,E COPPER ST,-110.875398,32.254142,-214748363.0,1.0,85712
12854.0,CRSJ(NE),Craycroft/St Joseph Church,S CRAYCROFT RD,E COOPER ST,-110.875122,32.218706,-214748363.0,1.0,85711
12864.0,CRSP(NE),Craycroft/Speedway,N CRAYCROFT RD,E SPEEDWAY BLVD,-110.875415,32.236824,-214748363.0,1.0,85712
12819.0,CRSP(SW),Craycroft/Speedway,N CRAYCROFT RD,E SPEEDWAY BLVD,-110.875617,32.23544,-214748363.0,1.0,85712
12869.0,CRWA(NE),Craycroft/Waverly,N CRAYCROFT RD,E WAVERLY ST,-110.875345,32.246911,-214748363.0,1.0,85712
16000.0,CRWA(NW),Craycroft/Waverly,N SUN TRAN BLVD,E TANGELO DR,-110.875582,32.246971,-214748363.0,1.0,85712
12853.0,CRWI(NE),Craycroft/Wilshire,S CRAYCROFT RD,E SOUTH WILSHIRE DR,-110.875026,32.214783,-214748363.0,1.0,85711
15938.0,CRWI(NW),Craycroft/Williams Blvd,S CRAYCROFT RD,E WILLIAMS BLVD,-110.875277,32.217546,-214748363.0,1.0,85711
13188.0,CSES(NE),Cmo Seco/Escalante,S CMO SECO,S FRICK AVE,-110.806882,32.177634,-214748363.0,1.0,85730
13173.0,CSES(NW),Cmo Seco/Escalante,S CMO SECO,S FRICK AVE,-110.806965,32.178041,-214748363.0,1.0,85730
13189.0,CSMA(NE),Cmo Seco/Magda,S CMO SECO,S MAGDA AVE,-110.806869,32.182287,-214748363.0,1.0,85730
13172.0,CSMA(NW),Cmo Seco/Magda,S CMO SECO,S MAGDA AVE,-110.806954,32.182324,-214748363.0,1.0,85730
16187.0,CUCO(NE),SL/Cushing/Av del Convento,W CUSHING ST,S AVE DEL CONVENTO,-110.984631,32.21769,-214748363.0,1.0,85745
16174.0,CUFR(CR),SL/Cushing/Frontage Rd,W CUSHING ST,S FREEWAY,-110.980366,32.216805,-214748363.0,1.0,85745
13434.0,CUMA(SE),Cushing/Main,W CUSHING ST,S MEYER AVE,-110.97415,32.216808,-214748363.0,1.0,85701
13913.0,CUPL(NW),Curtis/Plane,W CURTIS RD,N PLANE AVE,-111.023033,32.301546,-214748363.0,1.0,85705
174.0,DACU(SW),Davis/Curtis,N DAVIS AVE,W CURTIS RD,-111.026943,32.301007,-214748364.0,1.0,85705
13915.0,DADI(SW),Davis/Diamond,N DAVIS AV,W DIAMOND ST,-111.026998,32.298091,-214748363.0,1.0,85705
15952.0,DARU(NW),Davis/Ruthrauff,N DAVIS AVE,W DIAMOND ST,-111.027053,32.294871,-214748363.0,1.0,85705
16327.0,DMLC(SE),SS/Duval Mine Rd/La Canada Dr,W DUVAL MINE RD,S LA CANADA DR,-110.992677,31.902545,-214748364.0,1.0,85614
16058.0,DMOE(NW),SS/C Don Miguel/Cmo de Oeste,W C DON MIGUEL,S AVE DON FERNANDO,-111.063122,32.170073,-214748363.0,1.0,85746
16061.0,DOBO(NW),SS/Donald/Bopp Rd,W BOPP RD,S THORNTON AVE,-111.099237,32.180352,-214748364.0,1.0,85735
122.0,DORI(SE),Dodge/River,N DODGE BLVD,E GLENN ST,-110.913944,32.273463,-214748363.0,1.0,85718
12143.0,DR11(NE),Drachman/11th Av,W DRACHMAN ST,N 11TH AVE,-110.976268,32.239513,-214748363.0,1.0,85705
12253.0,DR11(SW),Drachman/11th Av,W DRACHMAN ST,N 11TH AVE,-110.976694,32.239372,-214748363.0,1.0,85705
14735.0,DR12(NW),Drexel/12th Av,W DREXEL RD,S 12TH AVE,-110.977892,32.148711,-214748363.0,1.0,85706
12645.0,DRCA(SE),Drexel/Campbell,E DREXEL RD,S CAMPBELL AVE,-110.942884,32.148587,-214748363.0,1.0,85706
16259.0,DRCC(NW),Drexel/Country Club,E DREXEL RD, ,-110.926666,32.14888,-214748363.0,1.0,85706
12649.0,DRCC(SE),Drexel/Country Club MHP,E DREXEL RD, ,-110.92914,32.148713,-214748363.0,1.0,85706
12557.0,DRCR(SE),Drexel/Cardinal,W DREXEL RD,S CARDINAL AVE,-111.028028,32.148243,-214748364.0,1.0,85746
12667.0,DRCT(SW),Drexel/Catalina,E DREXEL RD,S CATALINA AVE,-110.899191,32.148831,-214748363.0,1.0,85706
12546.0,DRHI(NE),Drexel/Hildreth,W DREXEL RD,S HILDRETH AV,-111.024086,32.148382,-214748363.0,1.0,85746
16153.0,DRHI(NW),Drexel/Hildreth,W DREXEL RD,S CACTUS WREN AVE,-111.025483,32.148416,-214748363.0,1.0,85746
12558.0,DRHI(SE),Drexel/Hildreth,W DREXEL RD,S ORIOLE AVE,-111.023855,32.14826,-214748363.0,1.0,85746
12698.0,DRJA(NW),Drexel/Jasmine,E DREXEL RD,S JASMINE WAY,-110.940837,32.14874,-214748363.0,1.0,85706
12646.0,DRJA(SE),Drexel/Jasmine,E DREXEL RD,S JASMINE WY,-110.940113,32.148603,-214748363.0,1.0,85706
223.0,DRMI(NW),Drexel/Mission,W DREXEL RD,S MISSION RD,-111.013603,32.1484,-214748363.0,1.0,85746
222.0,DRMI(SE),Drexel/Mission,W DREXEL RD,S MISSION RD,-111.012549,32.14833,-214748363.0,1.0,85746
16114.0,DROT(NW),Drexel/Oak Tree,W DREXEL RD,S OAK TREE DR,-111.007094,32.148462,-214748363.0,1.0,85746
14436.0,DROT(SE),Drexel/Oak Tree,W DREXEL RD,S OAK TREE DR,-111.006336,32.148344,-214748363.0,1.0,85746
16065.0,DRRA(SE),SS/Drexel/Rafter Rd,W DREXEL RD,S RAFTER R,-111.107125,32.147847,-214748363.0,1.0,85757
14425.0,DRRE(SE),Drexel/Rex Strav,E DREXEL RD,S REX SV,-110.907425,32.14887,-214748363.0,1.0,85706
14942.0,DRRS(SE),Drexel/Ray Strav,E DREXEL RD,S BRYANT AVE,-110.903731,32.148831,-214748363.0,1.0,85706
16360.0,DRSC(NW),Drexel/Santa Clara, , ,-110.982215,32.148692,-214748364.0,1.0,85706
16359.0,DRSC(SW),Drexel/Santa Clara, , ,-110.982195,32.148543,-214748364.0,1.0,85706
12142.0,DRST(NW),Drachman/Stone,W DRACHMAN ST,N STONE AVE,-110.972204,32.239528,-214748363.0,1.0,85705
14381.0,DRTU(NW),Drexel/Tucson,E DREXEL RD,S TUCSON BL,-110.9357,32.148799,-214748363.0,1.0,85706
14380.0,DRTU(SE),Drexel/Tucson,E DREXEL RD,S TUCSON BL,-110.934178,32.148652,-214748363.0,1.0,85706
14692.0,DRWC(NW),Drexel/Wood Crest Dr,W DREXEL RD,S WOOD CREST DR,-111.00115,32.148434,-214748363.0,1.0,85746
14437.0,DRWC(SW),Drexel/Wood Crest Dr,W DREXEL RD,S WOOD CREST DR,-111.000501,32.148288,-214748363.0,1.0,85746
12559.0,DRWE(SE),Drexel/Westover,W DREXEL RD,S WESTOVER AVE,-111.019774,32.148283,-214748363.0,1.0,85746
12723.0,DRWE*NW*,Drexel/Westover,W DREXEL RD,S WESTOVER AVE,-111.020528,32.148417,-214748363.0,1.0,85746
12697.0,DRWI(NW),Drexel/Wilson,E DREXEL RD,S WILSON AVE,-110.938142,32.148731,-214748363.0,1.0,85706
12647.0,DRWI(SE),Drexel/Wilson,E DREXEL RD,S WILSON AV,-110.937268,32.148624,-214748363.0,1.0,85706
12987.0,ELCC(NW),Elm/Country Club,E ELM ST,N COUNTRY CLUB RD,-110.927219,32.243315,-214748363.0,1.0,85716
12988.0,ELTR(NW),Elm/Treat,E ELM ST,N TREAT AV,-110.93151,32.243293,-214748363.0,1.0,85716
13257.0,ELTR(SE),Elm/Treat,E ELM ST,N TREAT AV,-110.930786,32.243143,-214748363.0,1.0,85716
12456.0,ERAZ(SW),El Rio Dr/Aztec,W EL RIO DR,N AZTEC AVE,-110.999203,32.243416,-214748363.0,1.0,85745
16346.0,ERCV(SE),El Rio Dr/Club View,N EL RIO DR,E 31ST ST,-111.002269,32.241084,-214748364.0,1.0,85745
12457.0,ERMO(SE),El Rio Dr/Mohave,W EL RIO DR,N MOHAVE AVE,-110.99702,32.243834,-214748364.0,1.0,85745
12484.0,ERNA(SW),El Rio Dr/Navajo,W EL RIO DR,N NAVAJO ST,-110.993554,32.242184,-214748364.0,1.0,85745
16131.0,ESEV(SE),SS/Escalante/Evergreen,N SUN TRAN BLVD,E TANGELO DR,-110.827207,32.177206,-214748364.0,1.0,85730
16143.0,ESGR(NW),SS/Escalante/Grady,N SUN TRAN BLVD,E TANGELO DR,-110.827969,32.177493,-214748364.0,1.0,85730
16021.0,ESKO(SE),SS/Escalante/Kolb,N SUN TRAN BLVD,E TANGELO DR,-110.840447,32.177277,-214748364.0,1.0,85730
14961.0,ESLB(NW),Escalante/Le Beaux,E ESCALANTE RD,S LE BRECQUE PL,-110.81521,32.177418,-214748363.0,1.0,85730
14097.0,ESLB*SW*,Escalante/Le Breque,E ESCALANTE RD,S MANITOBA AVE,-110.816564,32.177238,-214748363.0,1.0,85730
14084.0,ESMA(NW),Escalante/Manitoba,E ESCALANTE RD,S MANITOBA AVE,-110.819782,32.177534,-214748364.0,1.0,85730
14096.0,ESMA(SE),Escalante/Manitoba,E ESCALANTE RD,S MANITOBA AVE,-110.818983,32.177261,-214748363.0,1.0,85730
16041.0,ESPA(NW),SS/Escalante/Pantano,E ESCALANTE RD,S CARSON AVE,-110.824258,32.177465,-214748363.0,1.0,85730
20.0,ESPA(SE),Escalante/Pantano,E ESCALANTE RD,S PANTANO RD,-110.823121,32.17723,-214748363.0,1.0,85730
14923.0,ESPL(NW),Escalante/Av de las Palmas,E ESCALANTE RD,S AVE DE LAS PALMA,-110.810808,32.177454,-214748363.0,1.0,85730
14924.0,ESPL(SW),Escalante/Av de las Palmas,E ESCALANTE RD,S AVENIDA DE LAS PALMAS,-110.810595,32.177244,-214748363.0,1.0,85730
16198.0,ESPO(NW),SS/Escalante/Poinciana, ,E INNOVATION PARK DR,-110.837175,32.177503,-214748364.0,1.0,85730
16199.0,ESPO(SE),SS/Escalante/Poinciana, ,S MISSION RD,-110.836051,32.177234,-214748364.0,1.0,85730
16142.0,ESPR(NW),SS/Escalante/Prudence,N SUN TRAN BLVD,E TANGELO DR,-110.832841,32.177489,-214748364.0,1.0,85730
16130.0,ESWP(SE),SS/Escalante/Winter Palm,N SUN TRAN BLVD,E TANGELO DR,-110.831963,32.177225,-214748364.0,1.0,85730
16190.0,ETTR(NW),SS/El Tiro Rd/Trico Rd,W EL TIRO RD,N DORAL AV,-111.304917,32.42945,-214748364.0,1.0,85653
16071.0,ETTR(SW),SS/El Tiro Rd/Trico Rd,N TRICO RD,W SANDY ST,-111.304739,32.429376,-214748364.0,1.0,85653
14726.0,EU12(SE),Euclid/12th St,S EUCLID AVE,E 18TH ST,-110.959293,32.219387,-214748363.0,1.0,85719
10862.0,EU12(SW),Euclid/12th St,S EUCLID AVE,E 12TH ST,-110.959534,32.219714,-214748363.0,1.0,85719
13081.0,EU1S(NE),Euclid/1st St,N EUCLID AVE,E 1ST ST,-110.959389,32.234461,-214748363.0,1.0,85719
12922.0,EU1S(SW),Euclid/1st St,N EUCLID AVE,E 2ND ST,-110.959558,32.234089,-214748363.0,1.0,85719
60.0,EU6S(NE),Euclid/6th St,N EUCLID AVE, ,-110.959375,32.228288,-214748363.0,1.0,85719
65.0,EU6S(SW),Euclid/6th St,N EUCLID AVE,E 6TH ST,-110.959551,32.227424,-214748363.0,1.0,85719
13079.0,EU9S(NE),Euclid/9th St,N EUCLID AVE,E 9TH ST,-110.959362,32.224077,-214748363.0,1.0,85719
14364.0,EU9S(SW),Euclid/9th St,N EUCLID AVE,E 9TH ST,-110.959526,32.223654,-214748363.0,1.0,85719
13604.0,EUBR(NE),Euclid/Broadway,N EUCLID AVE,S EUCLID AVE,-110.959372,32.222027,-214748363.0,1.0,85719
14368.0,EUDR(NE),Euclid/Drachman,N EUCLID AVE,E DRACHMAN ST,-110.959426,32.239787,-214748363.0,1.0,85719
12920.0,EUDR(SW),Euclid/Drachman,N EUCLID AVE,E DRACHMAN ST,-110.9596,32.239356,-214748363.0,1.0,85719
12919.0,EUEL(SW),Euclid/Elm,N EUCLID AVE,E ELM ST,-110.959653,32.242378,-214748363.0,1.0,85719
13084.0,EULE(NE),Euclid/Lester,N EUCLID AVE,E LESTER ST,-110.959469,32.243713,-214748363.0,1.0,85719
12918.0,EULI(NW),Euclid/Linden,N EUCLID AVE,E LINDEN ST,-110.959651,32.244812,-214748363.0,1.0,85719
13085.0,EUSE(NE),Euclid/Seneca,N EUCLID AVE,E SENECA ST,-110.959481,32.246894,-214748363.0,1.0,85719
13082.0,EUSP(NE),Euclid/Speedway,N EUCLID AV,E SPEEDWAY BL,-110.959386,32.236402,-214748363.0,1.0,85719
12921.0,EUSP(SW),Euclid/Speedway,N EUCLID AVE,E SPEEDWAY BLVD,-110.959574,32.235649,-214748363.0,1.0,85719
13080.0,EUUN(NE),Euclid/University,N EUCLID AVE,E 2ND ST,-110.959389,32.23195,-214748363.0,1.0,85719
12923.0,EUUN(SW),Euclid/University,N EUCLID AVE,E UNIVERSITY BLVD,-110.959563,32.231528,-214748363.0,1.0,85719
16191.0,FEAV(NE),SS/Feldman Rd/Avra Valley Rd,N FELDMAN RD,W AVRA VALLEY RD,-111.311036,32.384961,-214748364.0,1.0,85653
16072.0,FEAV(NW),SS/Feldman Rd/Avra Valley Rd,N FELDMAN RD,W AVRA VALLEY RD,-111.311017,32.384573,-214748364.0,1.0,85653
16274.0,FL1A(NW),Fort Lowell/1st Av,E FORT LOWELL RD,E DREXEL RD,-110.96163,32.264943,-214748363.0,1.0,85705
64.0,FL1A(SE),Fort Lowell/1st Av,E FORT LOWELL RD,N 1ST AVE,-110.960646,32.264779,-214748363.0,1.0,85719
12797.0,FL28(EB),Fort Lowell/2828 E Fort Lowell,E FORT LOWELL RD,N CHRISTMAS AVE,-110.929421,32.26486,-214748363.0,1.0,85716
258.0,FLAV(NW),Fort Lowell/Alvernon,E FORT LOWELL RD,N ALVERNON WAY,-110.910229,32.265267,-214748363.0,1.0,85716
12794.0,FLCA(NW),Fort Lowell/Campbell,E FORT LOWELL RD,N CAMPBELL AVE,-110.944174,32.264908,-214748363.0,1.0,85719
12889.0,FLCA(SE),Fort Lowell/Campbell,E FORT LOWELL RD,N CAMPBELL AVE,-110.943538,32.264768,-214748363.0,1.0,85719
12885.0,FLCC(NW),Fort Lowell/Country Club,E FORT LOWELL RD,N COUNTRY CLUB RD,-110.927275,32.265033,-214748363.0,1.0,85716
12798.0,FLCC(SE),Fort Lowell/Country Club,E FORT LOWELL RD,N COUNTRY CLUB RD,-110.926324,32.264823,-214748363.0,1.0,85716
14904.0,FLCH(SW),Fort Lowell/Cherry,E FORT LOWELL RD,N VINE AVE,-110.948282,32.26473,-214748363.0,1.0,85719
14609.0,FLCO(SE),Fort Lowell/Columbus,E FORT LOWELL RD,N COLUMBUS BLVD,-110.900815,32.265038,-214748363.0,1.0,85712
12882.0,FLDO(NW),Fort Lowell/Dodge,E FORT LOWELL RD,N DODGE BLVD,-110.914689,32.265243,-214748363.0,1.0,85716
10994.0,FLDO(SE),Fort Lowell/Dodge,E FORT LOWELL RD,N CHAPEL AVE,-110.913966,32.265031,-214748363.0,1.0,85716
12884.0,FLED(NE),Fort Lowell/Edith,E FORT LOWELL RD,N EDITH BLVD,-110.922042,32.265102,-214748363.0,1.0,85716
12799.0,FLED(SE),Fort Lowell/Edith,E FORT LOWELL RD,N EDITH BLVD,-110.92199,32.264948,-214748363.0,1.0,85716
16361.0,FLFO(NW),Fort Lowell/Fontana, , ,-110.968222,32.264864,-214748364.0,1.0,85705
16276.0,FLFO(SW),Fort Lowell/Geronimo,E FORT LOWELL RD,N FONTANA AVE,-110.966045,32.264685,-214748364.0,1.0,85705
16235.0,FLFX(NW),Fort Lowell/Fox Av,E FORT LOWELL RD,N FOX AVE,-110.932189,32.265007,-214748363.0,1.0,85716
14933.0,FLLR(SE),Fort Lowell/Av Laurel Real,E FORT LOWELL RD,N AVE LAUREL REAL,-110.90455,32.265068,-214748363.0,1.0,85712
12891.0,FLMO(NW),Fort Lowell/Mountain,E FORT LOWELL RD,E NAVAJO RD,-110.952728,32.264919,-214748363.0,1.0,85719
12792.0,FLMO(SE),Fort Lowell/Mountain,E FORT LOWELL RD,N MOUNTAIN AVE,-110.951998,32.264704,-214748363.0,1.0,85719
14909.0,FLNA(NW),Fort Lowell/Navajo,E FORT LOWELL RD,E NAVAJO RD,-110.954525,32.26487,-214748363.0,1.0,85719
12790.0,FLPK(SE),Fort Lowell/Park,E FORT LOWELL RD,E NAVAJO RD,-110.956529,32.264709,-214748363.0,1.0,85719
12883.0,FLPV(NW),Fort Lowell/Palo Verde,E FORT LOWELL RD,N PALO VERDE AVE,-110.918867,32.265128,-214748363.0,1.0,85716
12800.0,FLPV(SE),Fort Lowell/Palo Verde,E FORT LOWELL RD,N PALO VERDE AVE,-110.917392,32.264997,-214748363.0,1.0,85716
12880.0,FLRI(NW),Fort Lowell/Riverhaven,E FORT LOWELL RD,N RIVERHAVEN DR,-110.902383,32.265186,-214748363.0,1.0,85712
16277.0,FLST(SE),Fort Lowell/Stone,E FORT LOWELL RD,N ESTRELLA AVE,-110.971391,32.26466,-214748363.0,1.0,85705
12881.0,FLSY(NW),Fort Lowell/Sycamore,E FORT LOWELL RD,N SYCAMORE AVE,-110.906576,32.265182,-214748363.0,1.0,85712
12887.0,FLTU(NW),Fort Lowell/Tucson,E FORT LOWELL RD,N TUCSON BLVD,-110.935958,32.264972,-214748363.0,1.0,85719
12796.0,FLTU(SE),Fort Lowell/Tucson,E FORT LOWELL RD,N TUCSON BLVD,-110.93475,32.264828,-214748363.0,1.0,85716
14892.0,FLVI(NE),Fort Lowell/Vine,E FORT LOWELL RD,N VINE AVE,-110.949874,32.264869,-214748363.0,1.0,85719
12888.0,FLWI(NW),Fort Lowell/Wilson,E FORT LOWELL RD,N WILSON AVE,-110.939865,32.264921,-214748363.0,1.0,85719
12795.0,FLWI(SE),Fort Lowell/Wilson,E FORT LOWELL RD,N WILSON AVE,-110.93924,32.264772,-214748363.0,1.0,85719
259.0,FLWN(SE),Fort Lowell/Winstel,E FORT LOWELL RD,N WINSTEL BLVD,-110.910813,32.265043,-214748363.0,1.0,85716
13256.0,FOEL(SE),Forgeus/Elm,N FORGEUS AVE,E LEE ST,-110.933849,32.242708,-214748363.0,1.0,85716
14198.0,FRCU(NE),Fresno/Cuesta,W FRESNO ST,N CUESTA AV,-110.994216,32.224541,-214748363.0,1.0,85745
11720.0,FRSI(SE),Fresno/Silverbell,W FRESNO ST,N SILVERBELL RD,-110.995182,32.224334,-214748363.0,1.0,85745
15982.0,FRTR(NW),SS/Front St/Trader Ln,W CMO ALAMEDA,S LA CANADA DR,-110.992201,31.869072,-214748363.0,1.0,85614
14560.0,FWDE(NE),Flowing Wells/Delano,N FLOWING WELLS RD,W DELANO DR,-110.994934,32.264051,-214748363.0,1.0,85705
11378.0,FWDE(NW),Flowing Wells/Delano,N FLOWING WELLS RD,W DELANO DR,-110.995097,32.26389,-214748363.0,1.0,85705
16146.0,FWMO(NE),Flowing Wells/Mohave,N FLOWING WELLS RD,W PANAMA LN,-110.994923,32.268361,-214748363.0,1.0,85705
14215.0,FWMO(SW),Flowing Wells/Mohave,N FLOWING WELLS RD,W MOHAVE RD,-110.99519,32.267893,-214748363.0,1.0,85705
11427.0,FWPA(NE),Flowing Wells/Pastime,N FLOWING WELLS RD,W PASTIME RD,-110.994857,32.275946,-214748363.0,1.0,85705
11373.0,FWPA(SW),Flowing Wells/Pastime,N FLOWING WELLS RD,W PASTIME RD,-110.995169,32.275411,-214748363.0,1.0,85705
11375.0,FWPR(NE),Flowing Wells/Prince,N FLOWING WELLS RD,W PRINCE RD,-110.994935,32.272893,-214748363.0,1.0,85705
11426.0,FWPR(SW),Flowing Wells/Prince,N FLOWING WELLS RD,W PRINCE RD,-110.995157,32.271587,-214748363.0,1.0,85705
14563.0,FWRO(SE),Flowing Wells/Roger,N FLOWING WELLS RD,W ROGER RD,-110.994881,32.279126,-214748363.0,1.0,85705
11372.0,FWRO(SW),Flowing Wells/Roger,N FLOWING WELLS RD,W ROGER RD,-110.995129,32.278774,-214748363.0,1.0,85705
14874.0,FWSC(SE),Flowing Wells/Schafer,N FLOWING WELLS RD,W WETMORE RD,-110.995006,32.287394,-214748363.0,1.0,85705
14565.0,FWTA(NE),Flowing Wells/Talisman,N FLOWING WELLS RD,W TALISMAN ST,-110.994933,32.28415,-214748363.0,1.0,85705
14575.0,FWTA(SW),Flowing Wells/Talisman,N FLOWING WELLS RD,W TALISMAN ST,-110.995107,32.283718,-214748363.0,1.0,85705
14567.0,FWWA(NE),Flowing Wells/Wabash,N FLOWING WELLS RD,W ALLEGHENY DR,-110.995005,32.291002,-214748363.0,1.0,85705
14573.0,FWWA(SW),Flowing Wells/Wabash,N FLOWING WELLS RD,W WABASH ST,-110.995178,32.290582,-214748363.0,1.0,85705
14574.0,FWWE(SW),Flowing Wells/Wetmore,N FLOWING WELLS RD,W WETMORE RD,-110.995145,32.286325,-214748363.0,1.0,85705
16160.0,GAPV(NE),Gas Rd/Palo Verde,E GAS RD,S PALO VERDE RD,-110.917262,32.167061,-214748363.0,1.0,85714
11033.0,GAPV(SE),Gas Rd/Palo Verde,E GAS RD,S PALO VERDE RD,-110.917394,32.16695,-214748363.0,1.0,85714
12808.0,GLAR(SE),Glenn/Arcadia,E GLENN ST,N ARCADIA AVE,-110.887856,32.257855,-214748363.0,1.0,85712
8.0,GLAV(NW),Glenn/Alvernon,E GLENN ST,N HASKELL DR,-110.910127,32.257945,-214748363.0,1.0,85716
5.0,GLAV(SE),Glenn/Alvernon,E GLENN ST,N ALVERNON WAY,-110.909233,32.257785,-214748363.0,1.0,85712
12872.0,GLBE(NW),Glenn/Beverly,E GLENN ST,N BEVERLY AVE,-110.879896,32.257992,-214748363.0,1.0,85712
9.0,GLCA(NE),Glenn/Campbell,E GLENN ST,N CAMPBELL AV,-110.943542,32.257615,-214748363.0,1.0,85719
14621.0,GLCA(NW),Golf Links/Cathy,E GOLF LINKS RD,S CATHY AV,-110.793906,32.191901,-214748363.0,1.0,85730
4.0,GLCA(SE),Glenn/Campbell,E GLENN ST,N CAMPBELL AV,-110.94317,32.2575,-214748363.0,1.0,85719
14715.0,GLCA(SW),Golf Links/Cathy,E GOLF LINKS RD,S CATHY AVE,-110.793916,32.191645,-214748363.0,1.0,85730
11288.0,GLCB(NW),Glenn/Columbus,E GLENN ST,N FAIR OAKS AVE,-110.901795,32.257954,-214748363.0,1.0,85712
12805.0,GLCB(SE),Glenn/Columbus,E GLENN ST,N COLUMBUS BLVD,-110.900688,32.257764,-214748363.0,1.0,85712
11293.0,GLCC(NW),Glenn/Country Club,E GLENN ST,N COUNTRY CLUB RD,-110.927335,32.257819,-214748363.0,1.0,85716
11275.0,GLCC(SE),Glenn/Country Club,E GLENN ST,N COUNTRY CLUB RD,-110.926296,32.257632,-214748363.0,1.0,85716
11298.0,GLCH(NW),Glenn/Cherry,E GLENN ST,N CHERRY AV,-110.948588,32.257648,-214748363.0,1.0,85719
15296.0,GLCH(SW),Glenn/Cherry,E GLENN ST,N HIGHLAND AVE,-110.948399,32.257464,-214748363.0,1.0,85719
12171.0,GLCL(SE),Glenn/Cloverland,E GLENN ST,N BEVERLY AVE,-110.880185,32.257904,-214748363.0,1.0,85712
11813.0,GLCO(NW),Golf Links/Cordova,E GOLF LINKS RD,S CALLE CORDOVA,-110.836941,32.1921,-214748363.0,1.0,85710
11777.0,GLCO(SE),Golf Links/Cordova,E GOLF LINKS RD,S C CORDOVA,-110.835863,32.191809,-214748363.0,1.0,85730
11804.0,GLCS(NW),Golf Links/Cmo Seco,E GOLF LINKS RD,S CMO SECO,-110.804085,32.191899,-214748363.0,1.0,85730
